id,type,category,name,amenity,shop,leisure,highway,railway,public_transport,addr_street,addr_housenumber,addr_city,phone,website,opening_hours,lat,lon
261156770,node,transit,115th Street Metra Station,,,,,,stop_position,,,,,,,41.6858441,-87.6124052
368074596,node,transit,Ivanhoe,,,,,station,station,West 144th Street,,Riverdale,,https://metra.com/train-lines/stations/ivanhoe,,41.6330687,-87.630569
368074599,node,transit,Riverdale,,,,,stop,stop_position,,,,,,,41.6463445,-87.6234006
401458379,node,transit,87th Street (Woodruff),,,,,stop,stop_position,,,,,,,41.7376851,-87.6001721
401458387,node,transit,87th Street (Woodruff),,,,,stop,stop_position,,,,,,,41.7373101,-87.6003726
711332489,node,transit,93rd Street & Escanaba,,,,,,stop_position,,,,,,,41.7263851,-87.554143
712911964,node,transit,87th Street,,,,,station,station,East 87th Street,,Chicago,,https://metra.com/train-lines/stations/87th-st-south-chicago,,41.7384761,-87.5483211
712911965,node,transit,South Chicago (93rd Street),,,,,station,station,East 93rd Street,,Chicago,,https://metra.com/train-lines/stations/93rd-st-south-chicago,,41.7273913,-87.5477862
712912385,node,transit,87th Street,,,,,stop,stop_position,,,,,,,41.7380101,-87.5482783
712912419,node,transit,South Chicago (93rd Street),,,,,stop,stop_position,,,,,,,41.7269696,-87.5477171
716918055,node,transit,Gresham,,,,,station,station,West 87th Street,820,Chicago,,https://metrarail.com/metra/en/home/maps_schedules/metra_system_map/ri/station.GRESHAM.html,,41.7366279,-87.6446465
716918065,node,transit,Brainerd,,,,,station,station,South Loomis Street,8901,Chicago,,,,41.7321231,-87.65896
716918077,node,transit,91st Street (Beverly Hills),,,,,station,station,South Prospect Street,9105,Chicago,,,,41.727968,-87.6671729
716918084,node,transit,95th Street (Beverly Hills),,,,,station,station,West 95th Street,1766,Chicago,,,,41.7214304,-87.6675082
716918694,node,transit,Gresham,,,,,stop,stop_position,,,,,,,41.7378901,-87.6441124
716925805,node,transit,Gresham,,,,,stop,stop_position,,,,,,,41.7363039,-87.6448015
717283168,node,transit,103rd Street (Washington Heights),,,,,stop,stop_position,,,,,,,41.705969,-87.6559566
717283193,node,transit,Blue Island (Vermont Street),,,,,station,station,Grove Street,2300,Blue Island,,https://metra.com/train-lines/stations/blue-island-vermont-st,,41.6548441,-87.6777671
717399987,node,transit,Blue Island (Vermont Street),,,,,stop,stop_position,,,,,,,41.6546747,-87.6782002
717400235,node,transit,Blue Island (Vermont Street),,,,,stop,stop_position,,,,,,,41.6553734,-87.6767985
717409879,node,transit,Blue Island,,,,,station,station,Vermont Street,,Blue Island,,https://metra.com/train-lines/stations/blue-island,,41.6558511,-87.6761068
717468715,node,transit,111th Street (Morgan Park),,,,,station,station,South Hale Avenue,11046,Chicago,,,,41.6925678,-87.6705457
717468735,node,transit,115th Street (Morgan Park),,,,,station,station,West 115th Street,1982,Chicago,,,,41.6853976,-87.6714035
717468755,node,transit,119th Street,,,,,station,station,West 119th Street,2040,Blue Island,,,,41.67643,-87.6726266
717468766,node,transit,123rd Street,,,,,stop,stop_position,,,,,,,41.6701473,-87.6736283
717468774,node,transit,Prairie Street,,,,,stop,stop_position,,,,,,,41.6618226,-87.6751796
717468799,node,transit,99th Street (Beverly Hills),,,,,station,station,South Walden Parkway,9901,Chicago,,,,41.7136695,-87.6673158
717468809,node,transit,103rd Street (Beverly Hills),,,,,station,station,South Walden Parkway,10301,Chicago,,,,41.7061682,-87.6688917
717468820,node,transit,107th Street (Beverly Hills),,,,,station,station,West 107th Street,1901,Chicago,,,,41.6988629,-87.6697797
718382731,node,transit,Ashland Avenue,,,,,station,station,South Ashland Avenue,,Calumet Park,,https://metra.com/train-lines/stations/ashland,,41.669294,-87.6606519
718382733,node,transit,West Pullman,,,,,station,station,South Halsted Street,,Chicago,,https://metra.com/train-lines/stations/west-pullman,,41.6741585,-87.6422103
718382734,node,transit,Stewart Ridge,,,,,stop,stop_position,,,,,,,41.6743083,-87.6313847
718382735,node,transit,State Street,,,,,station,station,South State Street,,Chicago,,https://metra.com/train-lines/stations/state-street,,41.6744501,-87.6211402
718382736,node,transit,Burr Oak,,,,,stop,stop_position,,,,,,,41.6619978,-87.6691886
718382852,node,transit,West Pullman,,,,,stop,stop_position,,,,,,,41.6741195,-87.6421299
718382976,node,transit,Blue Island,,,,,stop,stop_position,,,,,,,41.6557493,-87.6762824
718383001,node,transit,Blue Island,,,,,stop,stop_position,,,,,,,41.6557122,-87.6762073
721968259,node,transit,Hegewisch,,,,,station,station,South Brainard Avenue,13730,Chicago,,,,41.6464743,-87.5439369
745923705,node,transit,Joliet,,,,,stop,stop_position,,,,,,,41.52432,-88.0784071
1315460689,node,transit,Tinley Park-80th Avenue,,,,,station,station,South 80th Avenue,18001,Tinley Park,,,,41.5644232,-87.8095386
1315460695,node,transit,Midlothian,,,,,station,station,147th Street,3750,Midlothian,,,,41.6260384,-87.7123775
1325631234,node,transit,111th Street (Pullman),,,,,station,station,East 111th Street,,Chicago,,https://metra.com/train-lines/stations/111th-st-pullman,,41.6929315,-87.6104668
1325640307,node,transit,Kensington (115th Street),,,,,station,station,East 115th Street,,Chicago,,https://metra.com/train-lines/stations/kensington-115th-street,,41.6861072,-87.6120907
1325653576,node,transit,Harvey,,,,,station,station,East 154th Street,,Harvey,,https://metra.com/train-lines/stations/harvey,,41.6090848,-87.6434056
1325659088,node,transit,Calumet,,,,,station,station,Governors Highway,,East Hazel Crest,,https://metra.com/train-lines/stations/calumet,,41.5729767,-87.6626264
1325667458,node,transit,Homewood,,,,,station,station,Park Avenue,18015,Homewood,,https://metra.com/train-lines/stations/homewood,,41.5625033,-87.6681167
1325676457,node,transit,Olympia Fields,,,,,station,station,203rd Street,,Olympia Fields,,https://metra.com/train-lines/stations/olympia-fields,,41.5218165,-87.6899626
1325677994,node,transit,211th Street (Lincoln Highway),,,,,station,station,Lincoln Highway,3200,Olympia Fields,,https://metra.com/train-lines/stations/211th-street-lincoln-highway,,41.5063496,-87.6982407
1325679802,node,transit,Matteson,,,,,station,station,Main Street,,Matteson,,https://metra.com/train-lines/stations/matteson,,41.4980493,-87.7027093
1325681703,node,transit,Richton Park,,,,,stop,stop_position,,,,,,,41.4856514,-87.7092706
1325683269,node,transit,University Park,,,,,station,station,University Parkway,1900,University Park,,https://metra.com/train-lines/stations/university-park,,41.4594827,-87.7232711
1325712002,node,transit,Kensington (115th Street),,,,,stop,stop_position,,,,,,,41.6859224,-87.6121919
1326554518,node,transit,Olympia Fields,,,,,stop,stop_position,,,,,,,41.5225356,-87.6895229
1326564519,node,transit,Richton Park,,,,,stop,stop_position,,,,,,,41.487085,-87.7085033
1577485962,node,transit,Laraway Road,,,,,stop,stop_position,,,,,,,41.4855866,-87.9599787
1650648634,node,transit,Torrence & Sauk Trail,,,,bus_stop,,platform,,,,,,,41.4915734,-87.5582121
2022212518,node,transit,95th/Dan Ryan,,,,,stop,stop_position,,,,,,,41.7213822,-87.6244454
2023849151,node,transit,87th,,,,,stop,stop_position,,,,,,,41.7354903,-87.624805
2023849163,node,transit,87th,,,,,stop,stop_position,,,,,,,41.7354882,-87.62471
2023849177,node,transit,87th,,,,,station,station,West 87th Street,15,Chicago,,,,41.7360865,-87.6247647
2417284795,node,transit,Joliet,,,,,stop,stop_position,,,,,,,41.5246131,-88.0791772
2417284798,node,transit,Joliet,,,,,stop,stop_position,,,,,,,41.5246021,-88.0790764
2418418766,node,transit,Lockport,,,,,stop,stop_position,,,,,,,41.5852964,-88.0602399
2418525361,node,transit,Lemont,,,,,station,station,Main Street,101,Lemont,,,,41.6737825,-88.0028037
2418527397,node,transit,Willow Springs,,,,,station,station,,,Willow Springs,,,,41.7338397,-87.8779237
2418555278,node,transit,Manhattan,,,,,stop,stop_position,,,,,,,41.4176348,-87.9892886
2419139358,node,transit,143rd Street (Orland Park),,,,,stop,stop_position,,,,,,,41.6320779,-87.8578209
2419139360,node,transit,153rd Street (Orland Park),,,,,stop,stop_position,,,,,,,41.6084434,-87.8738396
2419400305,node,transit,179th Street (Orland Park),,,,,stop,stop_position,,,,,,,41.5636972,-87.9026545
2419423231,node,transit,143rd Street (Orland Park),,,,,station,station,143rd Street,,Orland Park,,,,41.6328981,-87.85685
2419427360,node,transit,Palos Heights,,,,,station,station,Southwest Highway,11451,Palos Heights,,,,41.6818973,-87.8072438
2419428388,node,transit,Worth,,,,,station,station,West 110th Street,,Worth,,,,41.6916019,-87.7958129
2419428784,node,transit,Chicago Ridge,,,,,stop,stop_position,,,,,,,41.7040652,-87.7795539
2419429382,node,transit,Oak Lawn,,,,,stop,stop_position,,,,,,,41.7197874,-87.7480662
2419844775,node,transit,Mokena,,,,,stop,stop_position,,,,,,,41.5312001,-87.8862484
2419844776,node,transit,Mokena,,,,,stop,stop_position,,,,,,,41.5310386,-87.8867149
2419912179,node,transit,Hickory Creek,,,,,stop,stop_position,,,,,,,41.5482224,-87.847039
2419912180,node,transit,Hickory Creek,,,,,stop,stop_position,,,,,,,41.5492486,-87.8445829
2419918005,node,transit,Tinley Park,,,,,station,station,South Street,6700,Tinley Park,,,,41.5759735,-87.7828609
2419924092,node,transit,Oak Forest,,,,,stop,stop_position,,,,,,,41.6051515,-87.737613
2421360795,node,transit,Racine Avenue,,,,,stop,stop_position,,,,,,,41.6740766,-87.652454
2421363688,node,transit,87th Street,,,,,stop,stop_position,,,,,,,41.7390266,-87.5484447
2421387964,node,transit,Flossmoor,,,,,stop,stop_position,,,,,,,41.5432688,-87.6784504
2421461825,node,transit,University Park,,,,,stop,stop_position,,,,,,,41.4589499,-87.7234957
2421471381,node,transit,Matteson,,,,,stop,stop_position,,,,,,,41.4973474,-87.7031324
2421471398,node,transit,Olympia Fields,,,,,stop,stop_position,,,,,,,41.521289,-87.6903024
2421471426,node,transit,Flossmoor,,,,,stop,stop_position,,,,,,,41.5419513,-87.6792665
2421471477,node,transit,Matteson,,,,,stop,stop_position,,,,,,,41.4984845,-87.7024109
2805162743,node,transit,Kedzie & 173rd Street,,,,bus_stop,,platform,,,,,,,41.5752406,-87.694223
3199522324,node,transit,Pace Harvey Transportation Center,,,,,,stop_position,,,,,,,41.610598,-87.6432013
3199522326,node,transit,Pace Harvey Transportation Center,,,,,,stop_position,,,,,,,41.6107277,-87.6434179
3210331739,node,transit,Torrence & 112th Street Terminal,,,,bus_stop,,platform,,,,,,,41.692717,-87.5596519
3210619684,node,transit,87th Street & Western Terminal,,,,,,stop_position,,,,,,,41.7353833,-87.681473
3211161561,node,transit,95th/Dan Ryan Red Line Station,,,,bus_stop,,platform,West 95th Street,14,Chicago,,,,41.7210446,-87.6248073
3215371707,node,transit,Olive Harvey College,,,,bus_stop,,platform,,,,,,,41.7094648,-87.5891044
3215380993,node,transit,103rd Street & Woodlawn,,,,bus_stop,,platform,,,,,,,41.7075041,-87.5945041
3215380994,node,transit,1100 E 103rd Street,,,,bus_stop,,platform,,,,,,,41.7077228,-87.5957146
3215380995,node,transit,Woodlawn & 103rd Street,,,,bus_stop,,platform,,,,,,,41.7083976,-87.5939551
3215380996,node,transit,103rd Street & Stony Island Garage Terminal,,,,bus_stop,,platform,,,,,,,41.7087562,-87.5809056
3215380997,node,transit,103rd Street & Stony Island Garage Terminal,,,,bus_stop,,platform,,,,,,,41.7085173,-87.581128
3215380998,node,transit,1100 E 103rd Street,,,,bus_stop,,platform,,,,,,,41.7075296,-87.5966119
3215405423,node,transit,103rd Street & King Drive,,,,bus_stop,,platform,,,,,,,41.7072385,-87.6134293
3215405427,node,transit,103rd Street & St. Lawrence,,,,bus_stop,,platform,,,,,,,41.7074771,-87.6087447
3215405431,node,transit,103rd Street & Eberhart,,,,bus_stop,,platform,,,,,,,41.7074287,-87.6111658
3215405434,node,transit,103rd Street & Prairie,,,,bus_stop,,platform,,,,,,,41.7073423,-87.6172727
3215405438,node,transit,103rd Street & Eberhart,,,,bus_stop,,platform,,,,,,,41.7072835,-87.6114783
3215405440,node,transit,103rd Street & Prairie,,,,bus_stop,,platform,,,,,,,41.7071859,-87.6175917
3215405447,node,transit,103rd Street & Forest,,,,bus_stop,,platform,,,,,,,41.7073677,-87.6160703
3215405451,node,transit,103rd Street & Corliss,,,,bus_stop,,platform,,,,,,,41.7075591,-87.6040939
3215405459,node,transit,103rd Street & Forest,,,,bus_stop,,platform,,,,,,,41.7072045,-87.6163439
3215405963,node,transit,103rd Street & Cottage Grove (Metra),,,,bus_stop,,platform,,,,,,,41.7073597,-87.6061112
3215405965,node,transit,103rd Street & Corliss,,,,bus_stop,,platform,,,,,,,41.7074346,-87.6032813
3215405976,node,transit,103rd Street & St. Lawrence,,,,bus_stop,,platform,,,,,,,41.7073137,-87.6090322
3215405978,node,transit,103rd Street & Cottage Grove (Metra),,,,bus_stop,,platform,,,,,,,41.7075165,-87.6060948
3215405984,node,transit,103rd Street & Calumet,,,,bus_stop,,platform,,,,,,,41.7073747,-87.6148606
3215405987,node,transit,103rd Street & King Drive,,,,bus_stop,,platform,,,,,,,41.7074074,-87.6135004
3215405991,node,transit,103rd Street & Calumet,,,,bus_stop,,platform,,,,,,,41.7072224,-87.6151379
3215405995,node,transit,900 E 103rd Street,,,,bus_stop,,platform,,,,,,,41.7074707,-87.6006246
3215405999,node,transit,900 E 103rd Street,,,,bus_stop,,platform,,,,,,,41.707614,-87.6012055
3215406001,node,transit,1000 E 103rd Street,,,,bus_stop,,platform,,,,,,,41.7076546,-87.5985441
3215422754,node,transit,Michigan & 100th Street,,,,bus_stop,,platform,,,,,,,41.7125126,-87.619978
3215422755,node,transit,Michigan & 103rd Street,,,,bus_stop,,platform,,,,,,,41.7076909,-87.6200303
3215422756,node,transit,103rd Street & Indiana,,,,bus_stop,,platform,,,,,,,41.7071742,-87.6188101
3215422757,node,transit,Michigan & 102nd Street,,,,bus_stop,,platform,,,,,,,41.7091435,-87.6200117
3215422758,node,transit,Michigan & 97th Street,,,,bus_stop,,platform,,,,,,,41.7183187,-87.6206255
3215422759,node,transit,95th Street & Michigan,,,,bus_stop,,platform,,,,,,,41.7218936,-87.6210076
3215422760,node,transit,Michigan & 101st Street,,,,bus_stop,,platform,,,,,,,41.7107577,-87.6197986
3215424961,node,transit,Michigan & 98th Street,,,,bus_stop,,platform,,,,,,,41.7164407,-87.6205975
3215424962,node,transit,Michigan & 99th Street,,,,bus_stop,,platform,,,,,,,41.7149585,-87.6205755
3215424963,node,transit,Michigan & 102nd Street,,,,bus_stop,,platform,,,,,,,41.7089256,-87.6198536
3215424964,node,transit,Michigan & 98th Street,,,,bus_stop,,platform,,,,,,,41.7161944,-87.6203666
3215424965,node,transit,Michigan & 97th Street,,,,bus_stop,,platform,,,,,,,41.7179992,-87.6203803
3215424966,node,transit,103rd Street & Indiana,,,,bus_stop,,platform,,,,,,,41.7073317,-87.6184843
3215424967,node,transit,95th Street & Michigan,,,,bus_stop,,platform,,,,,,,41.7216404,-87.6207947
3215424968,node,transit,Michigan & 99th Street,,,,bus_stop,,platform,,,,,,,41.7144016,-87.6202623
3215424969,node,transit,103rd Street & Michigan,,,,bus_stop,,platform,,,,,,,41.7072855,-87.6200294
3215424970,node,transit,Michigan & 96th Street,,,,bus_stop,,platform,,,,,,,41.7200959,-87.6207088
3215424971,node,transit,Michigan & 96th Street,,,,bus_stop,,platform,,,,,,,41.7198441,-87.6204251
3215424972,node,transit,Michigan & 101st Street,,,,bus_stop,,platform,,,,,,,41.7109797,-87.6200075
3215424973,node,transit,Michigan & 100th Street,,,,bus_stop,,platform,,,,,,,41.7123956,-87.6202354
3215424974,node,transit,103rd Street & Michigan,,,,bus_stop,,platform,,,,,,,41.7071503,-87.6198695
3215424975,node,transit,Michigan & 103rd Street,,,,bus_stop,,platform,,,,,,,41.7073866,-87.6203174
3217040233,node,transit,Racine & 87th Street Terminal,,,,bus_stop,,platform,,,,,,,41.7368712,-87.6532227
3313251010,node,transit,115th Street & Springfield Terminal,,,,bus_stop,,platform,,,,,,,41.6842265,-87.717349
3406594068,node,transit,Pulaski & 104th Street Terminal,,,,bus_stop,,platform,,,,,,,41.7043911,-87.7206648
3406594069,node,transit,111th Street & Harding Terminal,,,,bus_stop,,platform,,,,,,,41.6911606,-87.7194847
3406731005,node,transit,Ashland & 95th Street Terminal,,,,bus_stop,,platform,,,,,,,41.7203515,-87.6629739
3417488196,node,transit,Joliet,,,,,station,station,East Jefferson Street,90,Joliet,,,,41.524539,-88.0789317
3626207012,node,transit,Pace Harvey Transportation Center,,,,bus_stop,,platform,,,,,,,41.6108208,-87.6432741
3626207038,node,transit,Riverdale Bus Turnaround,,,,bus_stop,,platform,,,,,https://www.pacebus.com/facility/riverdale-turnaround,,41.6477021,-87.6174419
3653485491,node,transit,Pace Chicago Heights Bus Terminal,,,,bus_stop,,platform,,,,,,,41.5018815,-87.6381725
3685965414,node,transit,95th/Dan Ryan Red Line Station,,,,bus_stop,,platform,,,,,,,41.7208721,-87.6244577
3687572489,node,transit,95th Street & King Drive,,,,bus_stop,,platform,,,,,,,41.7220184,-87.6139878
3687572490,node,transit,Indiana & 130th Street,,,,bus_stop,,platform,,,,,,,41.6587467,-87.6174085
3687572491,node,transit,Indiana & 130th Street,,,,bus_stop,,platform,,,,,,,41.6588548,-87.6171916
3687572492,node,transit,95th Street & King Drive,,,,bus_stop,,platform,,,,,,,41.7217657,-87.6143937
3687620578,node,transit,Pace Homewood Park & Ride,,,,bus_stop,,platform,,,,,,,41.5640126,-87.6346581
3690851545,node,transit,Hegewisch South Shore Line Station,,,,bus_stop,,platform,,,,,,,41.6458251,-87.5426848
3690972419,node,transit,Morton & Willow,,,,bus_stop,,platform,,,,,,,41.6215292,-87.5225331
3694586538,node,transit,DeVry University,,,,bus_stop,,platform,,,,,,,41.552659,-87.7989311
3694603924,node,transit,Homewood Metra Station,,,,bus_stop,,platform,,,,,,,41.561756,-87.6680661
3701817106,node,transit,211th Street Metra Station,,,,bus_stop,,platform,,,,,,,41.5058356,-87.698941
3711097907,node,transit,Halsted & 119th Street,,,,bus_stop,,platform,,,,,,,41.6774444,-87.6420405
3711097910,node,transit,119th Street & Halsted,,,,bus_stop,,platform,,,,,,,41.6777145,-87.6421696
3711097915,node,transit,Halsted & 119th Street,,,,bus_stop,,platform,,,,,,,41.6781881,-87.6417362
3711097916,node,transit,119th Street & Halsted,,,,bus_stop,,platform,,,,,,,41.6778853,-87.6424719
3711343271,node,transit,Western & 119th Street Terminal,,,,bus_stop,,platform,,,,,,,41.6783909,-87.6804454
3712590674,node,transit,Orland Square Mall,,,,bus_stop,,platform,,,,,,,41.6216844,-87.8487372
3731239665,node,transit,87th Street & Western Terminal,,,,bus_stop,,platform,,,,,,,41.7353563,-87.6812939
3739904104,node,transit,University Park Metra Station,,,,bus_stop,,platform,,,,,,,41.4590225,-87.7225865
3740843844,node,transit,Moraine Valley Community College,,,,bus_stop,,platform,,,,,,,41.6931908,-87.8348544
3826000357,node,transit,87th Street & Cicero Terminal,,,,bus_stop,,platform,,,,,,,41.7329696,-87.7416946
3897581488,node,transit,115th Street & Springfield Terminal,,,,,,stop_position,,,,,,,41.6842179,-87.71726
3897611216,node,transit,95th Street & St. Lawrence,,,,bus_stop,,platform,,,,,,,41.7220933,-87.6091464
3897611217,node,transit,95th Street & St. Lawrence,,,,bus_stop,,platform,,,,,,,41.7218544,-87.60954
3897638403,node,transit,95th Street & Cottage Grove (Metra),,,,bus_stop,,platform,,,,,,,41.7221658,-87.6049787
3897638404,node,transit,95th Street & Langley,,,,bus_stop,,platform,,,,,,,41.7221363,-87.606731
3897638405,node,transit,95th Street & Eberhart,,,,bus_stop,,platform,,,,,,,41.7220507,-87.6115939
3897638406,node,transit,95th Street & Langley,,,,bus_stop,,platform,,,,,,,41.7219065,-87.6070791
3897638411,node,transit,95th Street & Forest,,,,bus_stop,,platform,,,,,,,41.721972,-87.6164192
3897638413,node,transit,95th Street & Indiana,,,,bus_stop,,platform,,,,,,,41.7216903,-87.6191892
3897638414,node,transit,Cottage Grove & 95th Street (Metra),,,,bus_stop,,platform,,,,,,,41.722456,-87.604341
3897638417,node,transit,95th Street & Eberhart,,,,bus_stop,,platform,,,,,,,41.7218259,-87.6115745
3897638418,node,transit,95th Street & Indiana,,,,bus_stop,,platform,,,,,,,41.7219321,-87.618828
3897638419,node,transit,95th Street & Forest,,,,bus_stop,,platform,,,,,,,41.7217338,-87.6167143
3897744851,node,transit,Yates & 96th Street,,,,bus_stop,,platform,,,,,,,41.7202019,-87.5646146
3897744852,node,transit,95th Street & Greenwood,,,,bus_stop,,platform,,,,,,,41.7222718,-87.5974289
3897744854,node,transit,100th Street & Hoxie,,,,bus_stop,,platform,,,,,,,41.713488,-87.5606647
3897744855,node,transit,95th Street & Woodlawn,,,,bus_stop,,platform,,,,,,,41.7220881,-87.5944074
3897744856,node,transit,95th Street & Woodlawn,,,,bus_stop,,platform,,,,,,,41.7223179,-87.5946119
3897744857,node,transit,1300 E 95th Street,,,,bus_stop,,platform,,,,,,,41.7221656,-87.5920504
3897744858,node,transit,100th Street & Bensley,,,,bus_stop,,platform,,,,,,,41.7136289,-87.563711
3897744859,node,transit,100th Street & Calhoun,,,,bus_stop,,platform,,,,,,,41.7136311,-87.5625257
3897744860,node,transit,Torrence & 104th Street,,,,bus_stop,,platform,,,,,,,41.706524,-87.5597715
3897744861,node,transit,Yates & 97th Street,,,,bus_stop,,platform,,,,,,,41.7188487,-87.5645642
3897744862,node,transit,9800 S Yates,,,,bus_stop,,platform,,,,,,,41.717383,-87.564749
3897744863,node,transit,Yates & 95th Street,,,,bus_stop,,platform,,,,,,,41.722399,-87.564592
3897744864,node,transit,95th Street & Dorchester,,,,bus_stop,,platform,,,,,,,41.7221909,-87.5900599
3897744865,node,transit,95th Street & Dorchester,,,,bus_stop,,platform,,,,,,,41.7223509,-87.5903083
3897744866,node,transit,930 E 95th Street,,,,bus_stop,,platform,,,,,,,41.7220209,-87.6007861
3897744867,node,transit,Yates & 99th Street,,,,bus_stop,,platform,,,,,,,41.7154431,-87.5647332
3897744868,node,transit,Torrence & 102nd Street,,,,bus_stop,,platform,,,,,,,41.7098541,-87.559618
3897744869,node,transit,95th Street & Stony Island Plaza,,,,bus_stop,,platform,,,,,,,41.7222929,-87.581675
3897744870,node,transit,95th Street & Stony Island,,,,bus_stop,,platform,,,,,,,41.7224823,-87.5847907
3897744871,node,transit,95th Street & Stony Island,,,,bus_stop,,platform,,,,,,,41.7222295,-87.5854999
3897744873,node,transit,100th Street & Bensley,,,,bus_stop,,platform,,,,,,,41.7134918,-87.5629666
3897744875,node,transit,95th Street & Stony Island,,,,bus_stop,,platform,,,,,,,41.7224747,-87.5857113
3897744876,node,transit,Torrence & 103rd Street,,,,bus_stop,,platform,,,,,,,41.7086331,-87.5595604
3897744878,node,transit,9800 S Yates,,,,bus_stop,,platform,,,,,,,41.7172598,-87.5645387
3897744879,node,transit,100th Street & Calhoun,,,,bus_stop,,platform,,,,,,,41.7134968,-87.5617935
3897744880,node,transit,Torrence & 101st Street,,,,bus_stop,,platform,,,,,,,41.7120201,-87.5596357
3897744881,node,transit,95th Street & Jeffery,,,,bus_stop,,platform,,,,,,,41.7223902,-87.5748451
3897744882,node,transit,95th Street & Constance,,,,bus_stop,,platform,,,,,,,41.7225191,-87.5787969
3897744883,node,transit,Torrence & 102nd Street,,,,bus_stop,,platform,,,,,,,41.7100513,-87.5598059
3897744884,node,transit,95th Street & Jeffery,,,,bus_stop,,platform,,,,,,,41.7225662,-87.5757437
3897744886,node,transit,Torrence & 105th Street,,,,bus_stop,,platform,,,,,,,41.7046926,-87.5597577
3897744887,node,transit,930 E 95th Street,,,,bus_stop,,platform,,,,,,,41.7222208,-87.6010244
3897744888,node,transit,2300 E 95th Street,,,,bus_stop,,platform,,,,,,,41.7224943,-87.5671874
3897744889,node,transit,95th Street & Paxton,,,,bus_stop,,platform,,,,,,,41.7226173,-87.5709251
3897744890,node,transit,1300 E 95th Street,,,,bus_stop,,platform,,,,,,,41.722337,-87.5923587
3897744893,node,transit,Yates & 99th Street,,,,bus_stop,,platform,,,,,,,41.715212,-87.5645419
3897744894,node,transit,Torrence & 105th Street,,,,bus_stop,,platform,,,,,,,41.704451,-87.5595011
3897744895,node,transit,95th Street & Greenwood,,,,bus_stop,,platform,,,,,,,41.7220476,-87.5973489
3897744896,node,transit,1500 E 95th Street,,,,bus_stop,,platform,,,,,,,41.7222099,-87.5886431
3897744897,node,transit,100th Street & Torrence,,,,bus_stop,,platform,,,,,,,41.7136644,-87.5602631
3897744898,node,transit,Yates & 97th Street,,,,bus_stop,,platform,,,,,,,41.7190412,-87.564731
3897744899,node,transit,Torrence & 104th Street,,,,bus_stop,,platform,,,,,,,41.7061763,-87.559524
3897744902,node,transit,95th Street & Yates,,,,bus_stop,,platform,,,,,,,41.7225071,-87.5649004
3897744903,node,transit,Torrence & 101st Street,,,,bus_stop,,platform,,,,,,,41.711908,-87.55981
3897744904,node,transit,95th Street & Constance,,,,bus_stop,,platform,,,,,,,41.7223044,-87.5792459
3897744905,node,transit,Torrence & 103rd Street,,,,bus_stop,,platform,,,,,,,41.7083642,-87.5597679
3897744906,node,transit,100th Street & Hoxie,,,,bus_stop,,platform,,,,,,,41.713647,-87.561257
3897744907,node,transit,Yates & 96th Street,,,,bus_stop,,platform,,,,,,,41.7204615,-87.5647652
3897744908,node,transit,1500 E 95th Street,,,,bus_stop,,platform,,,,,,,41.7223888,-87.5882923
3897744909,node,transit,2300 E 95th Street,,,,bus_stop,,platform,,,,,,,41.7226511,-87.5671132
3897892875,node,transit,Avenue C & 112th Street,,,,bus_stop,,platform,,,,,,,41.6919246,-87.527112
3897892876,node,transit,Avenue C & 107th Street,,,,bus_stop,,platform,,,,,,,41.7009891,-87.5270584
3897892877,node,transit,Avenue C & 109th Street,,,,bus_stop,,platform,,,,,,,41.6973603,-87.5270852
3897892878,node,transit,Avenue C & 110th Street,,,,bus_stop,,platform,,,,,,,41.6955338,-87.5271013
3897892879,node,transit,106th Street & Avenue D,,,,bus_stop,,platform,,,,,,,41.7028034,-87.527938
3897892880,node,transit,Avenue B & 110th Street,,,,bus_stop,,platform,,,,,,,41.6952443,-87.5257172
3897892881,node,transit,Avenue B & 107th Street,,,,bus_stop,,platform,,,,,,,41.7007497,-87.5256877
3897892882,node,transit,Avenue B & 111th Street,,,,bus_stop,,platform,,,,,,,41.693511,-87.5257407
3897892883,node,transit,Avenue B & 108th Street,,,,bus_stop,,platform,,,,,,,41.6989475,-87.5256905
3897892884,node,transit,112th Street & Avenue B,,,,bus_stop,,platform,,,,,,,41.6917184,-87.5259908
3897892886,node,transit,Avenue B & 109th Street,,,,bus_stop,,platform,,,,,,,41.6971428,-87.5257049
3897892888,node,transit,Avenue C & 108th Street,,,,bus_stop,,platform,,,,,,,41.6991907,-87.527053
3897892890,node,transit,106th Street & Avenue C,,,,bus_stop,,platform,,,,,,,41.7026067,-87.5271702
3897892891,node,transit,106th Street & Avenue B,,,,bus_stop,,platform,,,,,,,41.702775,-87.5263387
3897892892,node,transit,Avenue C & 111th Street,,,,bus_stop,,platform,,,,,,,41.693725,-87.5270983
3897942980,node,transit,2800 E 106th Street,,,,bus_stop,,platform,,,,,,,41.7028715,-87.5569996
3897942981,node,transit,106th Street & Mackinaw,,,,bus_stop,,platform,,,,,,,41.7028528,-87.5423357
3897942982,node,transit,106th Street & Muskegon,,,,bus_stop,,platform,,,,,,,41.7026796,-87.5551455
3897942984,node,transit,106th Street & Avenue H,,,,bus_stop,,platform,,,,,,,41.7028106,-87.5327168
3897942985,node,transit,106th Street & Avenue H,,,,bus_stop,,platform,,,,,,,41.7026392,-87.5329911
3897942987,node,transit,106th Street & Avenue F,,,,bus_stop,,platform,,,,,,,41.702794,-87.5302932
3897942988,node,transit,106th Street & Ewing,,,,bus_stop,,platform,,,,,,,41.7026593,-87.5354936
3897942989,node,transit,106th Street & Muskegon,,,,bus_stop,,platform,,,,,,,41.7028735,-87.5546848
3897942990,node,transit,106th Street & Torrence,,,,bus_stop,,platform,,,,,,,41.7028694,-87.5593661
3897942991,node,transit,106th Street & Torrence,,,,bus_stop,,platform,,,,,,,41.7026788,-87.5591252
3897942992,node,transit,106th Street & Avenue M,,,,bus_stop,,platform,,,,,,,41.7026747,-87.5379063
3897942993,node,transit,106th Street & Avenue O,,,,bus_stop,,platform,,,,,,,41.7028414,-87.5399434
3897942994,node,transit,106th Street & Ewing,,,,bus_stop,,platform,,,,,,,41.7028172,-87.5357375
3897942995,node,transit,2801 E 106th Street,,,,bus_stop,,platform,,,,,,,41.7026653,-87.5566509
3897942998,node,transit,3033 E 106th Street,,,,bus_stop,,platform,,,,,,,41.702686,-87.5493115
3897943000,node,transit,3033 E 106th Street,,,,bus_stop,,platform,,,,,,,41.7028618,-87.5492412
3897943001,node,transit,106th Street & Avenue O,,,,bus_stop,,platform,,,,,,,41.7026688,-87.540272
3897943003,node,transit,106th Street & Mackinaw,,,,bus_stop,,platform,,,,,,,41.7026852,-87.5427007
3897943004,node,transit,106th Street & Avenue E,,,,bus_stop,,platform,,,,,,,41.7026131,-87.52896
3897943010,node,transit,106th Street & Avenue F,,,,bus_stop,,platform,,,,,,,41.7026295,-87.5305897
3897943012,node,transit,106th Street & Avenue M,,,,bus_stop,,platform,,,,,,,41.7028354,-87.5375321
3919890251,node,transit,10600 S Michigan,,,,bus_stop,,platform,,,,,,,41.7013354,-87.6209262
3919890252,node,transit,1001 E 103rd Street,,,,bus_stop,,platform,,,,,,,41.7074544,-87.5990727
3919890253,node,transit,Michigan & 105th Street,,,,bus_stop,,platform,,,,,,,41.7036588,-87.620747
3919890254,node,transit,Michigan & 105th Street,,,,bus_stop,,platform,,,,,,,41.7033376,-87.6205682
3919890255,node,transit,Michigan & 104th Street,,,,bus_stop,,platform,,,,,,,41.7054893,-87.6205804
3919890256,node,transit,Michigan & 107th Street,,,,bus_stop,,platform,,,,,,,41.6996589,-87.6210337
3919892757,node,transit,10600 S Michigan,,,,bus_stop,,platform,,,,,,,41.7015967,-87.6207323
3919892758,node,transit,Michigan & 104th Street,,,,bus_stop,,platform,,,,,,,41.7052833,-87.6204184
3919892759,node,transit,Michigan & 107th Street,,,,bus_stop,,platform,,,,,,,41.6997997,-87.6208422
3919931844,node,transit,Michigan & 113th Street,,,,bus_stop,,platform,,,,,,,41.689125,-87.6211088
3919931846,node,transit,Michigan & 111th Street,,,,bus_stop,,platform,,,,,,,41.6923298,-87.6211367
3919931847,node,transit,Michigan & 108th Street,,,,bus_stop,,platform,,,,,,,41.698185,-87.6209828
3919931850,node,transit,Michigan & 109th Street,,,,bus_stop,,platform,,,,,,,41.6963978,-87.6209014
3919931851,node,transit,Michigan & 111th Street,,,,bus_stop,,platform,,,,,,,41.6929193,-87.6209488
3919931852,node,transit,Michigan & 110th Street,,,,bus_stop,,platform,,,,,,,41.6945395,-87.6208797
3919931853,node,transit,Michigan & 108th Street,,,,bus_stop,,platform,,,,,,,41.6979618,-87.6207795
3919931854,node,transit,Michigan & 113th Street,,,,bus_stop,,platform,,,,,,,41.6892922,-87.6209208
3919931855,node,transit,Michigan & 109th Street,,,,bus_stop,,platform,,,,,,,41.6965748,-87.6207253
3919931856,node,transit,Michigan & 112th Street,,,,bus_stop,,platform,,,,,,,41.6910549,-87.6209452
3919932457,node,transit,Michigan & 112th Street,,,,bus_stop,,platform,,,,,,,41.6908948,-87.6211196
3919932459,node,transit,Michigan & 110th Street,,,,bus_stop,,platform,,,,,,,41.694652,-87.6206928
3920107187,node,transit,119th Street & Princeton,,,,bus_stop,,platform,,,,,,,41.6780255,-87.6297051
3920107190,node,transit,119th Street & Vincennes (Metra),,,,bus_stop,,platform,,,,,,,41.6774269,-87.6715565
3920107191,node,transit,119th Street & Wentworth,,,,bus_stop,,platform,,,,,,,41.6779114,-87.6276315
3920107192,node,transit,119th Street & Bell,,,,bus_stop,,platform,,,,,,,41.6773275,-87.6767575
3920107193,node,transit,119th Street & Division,,,,bus_stop,,platform,,,,,,,41.6773383,-87.6689139
3920107194,node,transit,119th Street & Ada,,,,bus_stop,,platform,,,,,,,41.6777119,-87.65477
3920107196,node,transit,119th Street & Morgan,,,,bus_stop,,platform,,,,,,,41.6776738,-87.6467729
3920107197,node,transit,Michigan & 119th Street,,,,bus_stop,,platform,,,,,,,41.6783332,-87.6204249
3920107198,node,transit,Michigan & 119th Street,,,,bus_stop,,platform,,,,,,,41.678201,-87.6206126
3920107199,node,transit,119th Street & Elizabeth,,,,bus_stop,,platform,,,,,,,41.6777529,-87.651998
3920107200,node,transit,119th Street & Stewart,,,,bus_stop,,platform,,,,,,,41.6779987,-87.6320827
3920107202,node,transit,119th Street & Perry,,,,bus_stop,,platform,,,,,,,41.6779305,-87.6252927
3920107203,node,transit,119th Street & State,,,,bus_stop,,platform,,,,,,,41.6781068,-87.6224739
3920107204,node,transit,119th Street & Marshfield,,,,bus_stop,,platform,,,,,,,41.6774312,-87.6626688
3920107205,node,transit,119th Street & Perry,,,,bus_stop,,platform,,,,,,,41.6780845,-87.6249349
3920107206,node,transit,119th Street & Normal,,,,bus_stop,,platform,,,,,,,41.6778244,-87.6348843
3920107207,node,transit,119th Street & Bell,,,,bus_stop,,platform,,,,,,,41.6771933,-87.677003
3920107208,node,transit,Michigan & 118th Street,,,,bus_stop,,platform,,,,,,,41.6799969,-87.6206689
3920107209,node,transit,119th Street & Stewart,,,,bus_stop,,platform,,,,,,,41.6778461,-87.6324579
3920107210,node,transit,119th Street & Union,,,,bus_stop,,platform,,,,,,,41.6777762,-87.6396666
3920107211,node,transit,1916 W 119th Street,,,,bus_stop,,platform,,,,,,,41.6774849,-87.6684664
3920107213,node,transit,Michigan & 114th Street,,,,bus_stop,,platform,,,,,,,41.6872734,-87.6208433
3920107214,node,transit,Michigan & 116th Street,,,,bus_stop,,platform,,,,,,,41.6826882,-87.6207601
3920107215,node,transit,119th Street & Normal,,,,bus_stop,,platform,,,,,,,41.6779686,-87.634506
3920107217,node,transit,Michigan & 118th Street,,,,bus_stop,,platform,,,,,,,41.6797526,-87.6204825
3920107218,node,transit,119th Street & Page,,,,bus_stop,,platform,,,,,,,41.6774031,-87.6651801
3920107220,node,transit,Michigan & Kensington,,,,bus_stop,,platform,,,,,,,41.6840705,-87.6207977
3920107221,node,transit,Michigan & 115th Street,,,,bus_stop,,platform,,,,,,,41.6852051,-87.6207035
3920107222,node,transit,Michigan & 115th Street,,,,bus_stop,,platform,,,,,,,41.6849695,-87.6208777
3920107223,node,transit,Michigan & 116th Street,,,,bus_stop,,platform,,,,,,,41.6824299,-87.6205509
3920107224,node,transit,119th Street & Elizabeth,,,,bus_stop,,platform,,,,,,,41.6775837,-87.6528809
3920107226,node,transit,119th Street & Laflin,,,,bus_stop,,platform,,,,,,,41.6775116,-87.6590724
3920107227,node,transit,119th Street & Marshfield,,,,bus_stop,,platform,,,,,,,41.6776589,-87.663203
3920107228,node,transit,119th Street & Loomis,,,,bus_stop,,platform,,,,,,,41.6775377,-87.65677
3920107229,node,transit,119th Street & Wallace,,,,bus_stop,,platform,,,,,,,41.6777902,-87.6372982
3920107230,node,transit,119th Street & Princeton,,,,bus_stop,,platform,,,,,,,41.6778761,-87.6300767
3920107231,node,transit,119th Street & Morgan,,,,bus_stop,,platform,,,,,,,41.6778183,-87.6466015
3920107232,node,transit,Michigan & 117th Street,,,,bus_stop,,platform,,,,,,,41.6813662,-87.6205187
3920107235,node,transit,119th Street & Ashland,,,,bus_stop,,platform,,,,,,,41.6776671,-87.6611565
3920107236,node,transit,119th Street & Western,,,,bus_stop,,platform,,,,,,,41.677139,-87.6800756
3920107238,node,transit,Michigan & Kensington,,,,bus_stop,,platform,,,,,,,41.683805,-87.62061
3920107239,node,transit,119th Street & Wallace,,,,bus_stop,,platform,,,,,,,41.6779546,-87.6369335
3920107240,node,transit,119th Street & Justine,,,,bus_stop,,platform,,,,,,,41.6774877,-87.6603572
3920107241,node,transit,119th Street & State,,,,bus_stop,,platform,,,,,,,41.6779586,-87.6228411
3920107242,node,transit,119th Street & Wentworth,,,,bus_stop,,platform,,,,,,,41.6780464,-87.6272912
3920107243,node,transit,119th Street & Peoria,,,,bus_stop,,platform,,,,,,,41.6778472,-87.6442119
3920107244,node,transit,119th Street & Laflin,,,,bus_stop,,platform,,,,,,,41.6776489,-87.6588297
3920107245,node,transit,Michigan & 114th Street,,,,bus_stop,,platform,,,,,,,41.6871722,-87.621027
3920107246,node,transit,119th Street & Ada,,,,bus_stop,,platform,,,,,,,41.6775671,-87.6551134
3920107247,node,transit,119th Street & Union,,,,bus_stop,,platform,,,,,,,41.6779125,-87.6393153
3920107248,node,transit,119th Street & Peoria,,,,bus_stop,,platform,,,,,,,41.6777019,-87.6444986
3920107249,node,transit,119th Street & Page,,,,bus_stop,,platform,,,,,,,41.6775658,-87.6656612
3920107250,node,transit,Michigan & 117th Street,,,,bus_stop,,platform,,,,,,,41.6817777,-87.6207334
3920107251,node,transit,119th Street & Vincennes (Metra),,,,bus_stop,,platform,,,,,,,41.6772666,-87.6725575
3920107252,node,transit,119th Street & Loomis,,,,bus_stop,,platform,,,,,,,41.6777,-87.656295
3921500786,node,transit,Michigan & 122nd Street,,,,bus_stop,,platform,,,,,,,41.6726931,-87.6204426
3921500787,node,transit,Eberhart & 130th Street,,,,bus_stop,,platform,,,,,,,41.658662,-87.6107625
3921500788,node,transit,Michigan & 121st Street (Metra),,,,bus_stop,,platform,,,,,,,41.6745307,-87.6204986
3921500789,node,transit,Michigan & 123rd Street,,,,bus_stop,,platform,,,,,,,41.6706474,-87.6201998
3921500790,node,transit,Michigan & 122nd Street,,,,bus_stop,,platform,,,,,,,41.6724756,-87.6202588
3921500791,node,transit,Michigan & 126th Street,,,,bus_stop,,platform,,,,,,,41.6645873,-87.6201073
3921500792,node,transit,130th Street & Indiana,,,,bus_stop,,platform,,,,,,,41.6592371,-87.6171166
3921500793,node,transit,Michigan & 124th Place,,,,bus_stop,,platform,,,,,,,41.6678177,-87.620245
3921500794,node,transit,127th Street & Michigan,,,,bus_stop,,platform,,,,,,,41.6635499,-87.6197999
3921500795,node,transit,131st Street & Rhodes,,,,bus_stop,,platform,,,,,,,41.6574697,-87.6097861
3921500796,node,transit,130th Street & Indiana,,,,bus_stop,,platform,,,,,,,41.6590309,-87.6175806
3921500797,node,transit,Michigan & 126th Street,,,,bus_stop,,platform,,,,,,,41.6644561,-87.6199101
3921500798,node,transit,Michigan & 120th Street,,,,bus_stop,,platform,,,,,,,41.6761267,-87.6203632
3921500799,node,transit,Michigan & 124th Street,,,,bus_stop,,platform,,,,,,,41.6688462,-87.620126
3921500800,node,transit,Michigan & 120th Street,,,,bus_stop,,platform,,,,,,,41.6763518,-87.6205616
3921500801,node,transit,Michigan & 124th Street,,,,bus_stop,,platform,,,,,,,41.6690606,-87.6203057
3921500802,node,transit,Michigan & 121st Street (Metra),,,,bus_stop,,platform,,,,,,,41.6743428,-87.6203096
3921500803,node,transit,Michigan & 125th Place,,,,bus_stop,,platform,,,,,,,41.6664869,-87.6201877
3921500804,node,transit,Michigan & 125th Place,,,,bus_stop,,platform,,,,,,,41.6662375,-87.6199853
3921500805,node,transit,130th Street & Daniel,,,,bus_stop,,platform,,,,,,,41.6590136,-87.6152237
3921500806,node,transit,Michigan & 124th Place,,,,bus_stop,,platform,,,,,,,41.6676173,-87.6200547
3921500807,node,transit,Michigan & 123rd Street,,,,bus_stop,,platform,,,,,,,41.6708849,-87.6203916
3921500808,node,transit,130th Street & Daniel,,,,bus_stop,,platform,,,,,,,41.6592588,-87.6148807
3921500809,node,transit,Eberhart & 130th Street,,,,bus_stop,,platform,,,,,,,41.6587956,-87.6105411
3921502636,node,transit,131st Street & Rhodes,,,,bus_stop,,platform,,,,,,,41.6573431,-87.6097952
3921532104,node,transit,Ellis & 132nd Place,,,,bus_stop,,platform,,,,,,,41.654999,-87.5968448
3921532105,node,transit,133rd Place & Langley,,,,bus_stop,,platform,,,,,,,41.6526963,-87.6044355
3921532109,node,transit,131st Street & St. Lawrence,,,,bus_stop,,platform,,,,,,,41.6573828,-87.6074021
3921532110,node,transit,133rd Place & Corliss,,,,bus_stop,,platform,,,,,,,41.6533028,-87.6018361
3921532112,node,transit,131st Street & Ingleside,,,,bus_stop,,platform,,,,,,,41.6572335,-87.5996075
3921532113,node,transit,131st Street & Corliss,,,,bus_stop,,platform,,,,,,,41.6571393,-87.6019625
3921532117,node,transit,Langley & 133rd Street,,,,bus_stop,,platform,,,,,,,41.6541833,-87.6049568
3921532118,node,transit,131st Street & St. Lawrence,,,,bus_stop,,platform,,,,,,,41.6573537,-87.6077292
3921532119,node,transit,Ellis & 131st Street,,,,bus_stop,,platform,,,,,,,41.6568708,-87.5976682
3921532121,node,transit,Langley & 131st Street,,,,bus_stop,,platform,,,,,,,41.6572058,-87.6050719
3921532122,node,transit,Ellis & 133rd Street,,,,bus_stop,,platform,,,,,,,41.6538953,-87.5968832
3921532123,node,transit,Langley & 132nd Street,,,,bus_stop,,platform,,,,,,,41.6557168,-87.6050594
3921532125,node,transit,131st Street & Langley,,,,bus_stop,,platform,,,,,,,41.6572574,-87.6047758
3921532126,node,transit,948 E 133rd Place,,,,bus_stop,,platform,,,,,,,41.6538387,-87.5993768
3935439764,node,transit,Damen & 87th Street Terminal,,,,bus_stop,,platform,,,,,,,41.7361103,-87.6729593
4070242589,node,transit,111th Street & Cottage Grove,,,,bus_stop,,platform,,,,,,,41.6926884,-87.6092743
4070242590,node,transit,111th Street & Champlain,,,,bus_stop,,platform,,,,,,,41.6928843,-87.6075031
4070242591,node,transit,Cottage Grove & 111th Street,,,,bus_stop,,platform,,,,,,,41.6924815,-87.6100362
4070242592,node,transit,111th Street & Ellis,,,,bus_stop,,platform,,,,,,,41.6927592,-87.6047096
4070242593,node,transit,111th Street & Champlain,,,,bus_stop,,platform,,,,,,,41.6927158,-87.6073599
4070242595,node,transit,Cottage Grove & 115th Street,,,,bus_stop,,platform,,,,,,,41.6857021,-87.6115559
4070242596,node,transit,111th Street & Doty/Corliss,,,,bus_stop,,platform,,,,,,,41.6929768,-87.601347
4070242597,node,transit,Doty & Walmart,,,,bus_stop,,platform,,,,,,,41.6952283,-87.5982579
4070242598,node,transit,Doty & Walmart,,,,bus_stop,,platform,,,,,,,41.695071,-87.598718
4070242599,node,transit,Cottage Grove & 114th Street,,,,bus_stop,,platform,,,,,,,41.6872918,-87.6112004
4070242600,node,transit,Cottage Grove & 112th Street,,,,bus_stop,,platform,,,,,,,41.6908791,-87.6103755
4070242601,node,transit,111th Street & Ellis,,,,bus_stop,,platform,,,,,,,41.6929183,-87.6048585
4070242602,node,transit,10700 S Doty,,,,bus_stop,,platform,,,,,,,41.6978628,-87.5958375
4070242603,node,transit,Cottage Grove & 113th Street,,,,bus_stop,,platform,,,,,,,41.6888377,-87.6108529
4070278133,node,transit,King Drive & 114th Street,,,,bus_stop,,platform,,,,,,,41.6871735,-87.6131391
4070278134,node,transit,King Drive & 113th Street,,,,bus_stop,,platform,,,,,,,41.6889582,-87.613165
4070278135,node,transit,111th Street & Vernon,,,,bus_stop,,platform,,,,,,,41.6926577,-87.6123054
4070278136,node,transit,115th Street & King Drive (Metra),,,,bus_stop,,platform,,,,,,,41.6855125,-87.6129544
4070278137,node,transit,King Drive & 112th Street,,,,bus_stop,,platform,,,,,,,41.6908121,-87.6132273
4070278138,node,transit,King Drive & 111th Street,,,,bus_stop,,platform,,,,,,,41.6925432,-87.6132695
4158884750,node,transit,95th Street & Cottage Grove (Metra),,,,bus_stop,,platform,,,,,,,41.7219413,-87.6046915
4170732589,node,transit,95th Street & Halsted,,,,bus_stop,,platform,,,,,,,41.7213455,-87.6426677
4170732590,node,transit,Halsted & 95th Street,,,,bus_stop,,platform,,,,,,,41.721055,-87.6433589
4170732591,node,transit,95th Street & Wallace,,,,bus_stop,,platform,,,,,,,41.7214137,-87.6384795
4170732592,node,transit,95th Street & Halsted,,,,bus_stop,,platform,,,,,,,41.7215762,-87.6437073
4170732593,node,transit,95th Street & Eggleston,,,,bus_stop,,platform,,,,,,,41.7217135,-87.633269
4170732594,node,transit,95th Street & Normal,,,,bus_stop,,platform,,,,,,,41.7216859,-87.6357529
4170732595,node,transit,95th Street & Union,,,,bus_stop,,platform,,,,,,,41.7213849,-87.6409194
4170732596,node,transit,95th Street & Wallace,,,,bus_stop,,platform,,,,,,,41.7216442,-87.6382422
4170732597,node,transit,95th Street & Union,,,,bus_stop,,platform,,,,,,,41.7216066,-87.6406215
4170732598,node,transit,95th Street & Princeton,,,,bus_stop,,platform,,,,,,,41.7215107,-87.6312449
4170732599,node,transit,95th Street & Wentworth,,,,bus_stop,,platform,,,,,,,41.7215457,-87.6288536
4170732600,node,transit,95th Street & Wentworth,,,,bus_stop,,platform,,,,,,,41.7217796,-87.629031
4170732601,node,transit,95th Street & Normal,,,,bus_stop,,platform,,,,,,,41.7214488,-87.6360904
4170732602,node,transit,95th Street & Princeton,,,,bus_stop,,platform,,,,,,,41.7217429,-87.6309751
4170732603,node,transit,Halsted & 95th Street,,,,bus_stop,,platform,,,,,,,41.7212554,-87.6430458
4170732604,node,transit,95th Street & Eggleston,,,,bus_stop,,platform,,,,,,,41.721482,-87.6341273
4170794469,node,transit,Halsted & 108th Street,,,,bus_stop,,platform,,,,,,,41.6979445,-87.6427017
4170794470,node,transit,Halsted & 107th Street,,,,bus_stop,,platform,,,,,,,41.6994675,-87.6424537
4170794471,node,transit,Halsted & 97th Street,,,,bus_stop,,platform,,,,,,,41.7176835,-87.6429651
4170794472,node,transit,Halsted & 96th Street,,,,bus_stop,,platform,,,,,,,41.719447,-87.643296
4170794476,node,transit,Halsted & 109th Street,,,,bus_stop,,platform,,,,,,,41.6961119,-87.6426402
4170794477,node,transit,Halsted & 102nd Street,,,,bus_stop,,platform,,,,,,,41.7085917,-87.6427224
4170794478,node,transit,Halsted & 101st Street,,,,bus_stop,,platform,,,,,,,41.710675,-87.6430643
4170794480,node,transit,Halsted & 107th Street,,,,bus_stop,,platform,,,,,,,41.6993517,-87.6427491
4170794481,node,transit,Halsted & 110th Street,,,,bus_stop,,platform,,,,,,,41.6940484,-87.6422985
4170794482,node,transit,Halsted & 103rd Street,,,,bus_stop,,platform,,,,,,,41.7065488,-87.6429808
4170794483,node,transit,Halsted & 105th Street,,,,bus_stop,,platform,,,,,,,41.7031086,-87.6425717
4170794484,node,transit,Halsted & 99th Street,,,,bus_stop,,platform,,,,,,,41.7145129,-87.6428725
4170794485,node,transit,Halsted & 97th Street,,,,bus_stop,,platform,,,,,,,41.7177187,-87.6432516
4170794486,node,transit,Halsted & 100th Street,,,,bus_stop,,platform,,,,,,,41.712222,-87.6428177
4170794487,node,transit,Halsted & 104th Street,,,,bus_stop,,platform,,,,,,,41.705213,-87.642912
4170794488,node,transit,Halsted & 111th Street,,,,bus_stop,,platform,,,,,,,41.6921737,-87.6422248
4170794589,node,transit,Halsted & 111th Street,,,,bus_stop,,platform,,,,,,,41.6925229,-87.6425573
4170794591,node,transit,Halsted & 108th Street,,,,bus_stop,,platform,,,,,,,41.6977069,-87.6424025
4170794592,node,transit,Halsted & 104th Street,,,,bus_stop,,platform,,,,,,,41.7049688,-87.6426288
4170794593,node,transit,Halsted & 109th Street,,,,bus_stop,,platform,,,,,,,41.6958694,-87.6423358
4170794594,node,transit,Halsted & 105th Street,,,,bus_stop,,platform,,,,,,,41.7034612,-87.6429108
4170794595,node,transit,Halsted & 101st Street,,,,bus_stop,,platform,,,,,,,41.7104657,-87.6427804
4170794596,node,transit,Halsted & 99th Street,,,,bus_stop,,platform,,,,,,,41.7138944,-87.6432118
4170794597,node,transit,Halsted & 100th Street,,,,bus_stop,,platform,,,,,,,41.7124965,-87.6431093
4170794599,node,transit,Halsted & 110th Street,,,,bus_stop,,platform,,,,,,,41.694344,-87.6426081
4170794600,node,transit,Halsted & 98th Street,,,,bus_stop,,platform,,,,,,,41.7160118,-87.6432413
4170794601,node,transit,Halsted & 102nd Street,,,,bus_stop,,platform,,,,,,,41.708926,-87.6430341
4170794602,node,transit,Halsted & 106th Street,,,,bus_stop,,platform,,,,,,,41.7012745,-87.6425176
4170794603,node,transit,Halsted & 96th Street,,,,bus_stop,,platform,,,,,,,41.7195203,-87.6430129
4170794604,node,transit,Halsted & 98th Place,,,,bus_stop,,platform,,,,,,,41.7154396,-87.6428817
4170794605,node,transit,Halsted & 106th Street,,,,bus_stop,,platform,,,,,,,41.7015883,-87.642813
4170794606,node,transit,Halsted & 103rd Street,,,,bus_stop,,platform,,,,,,,41.7072958,-87.6426999
4170841068,node,transit,Halsted & 117th Street,,,,bus_stop,,platform,,,,,,,41.6816507,-87.6418945
4170841069,node,transit,Halsted & 116th Street,,,,bus_stop,,platform,,,,,,,41.6838587,-87.641974
4170841070,node,transit,Halsted & 117th Street,,,,bus_stop,,platform,,,,,,,41.6815382,-87.6421818
4170841071,node,transit,Halsted & 112th Street,,,,bus_stop,,platform,,,,,,,41.6904094,-87.6421706
4170841072,node,transit,Halsted & 113th Street,,,,bus_stop,,platform,,,,,,,41.688872,-87.6424271
4170841073,node,transit,Halsted & 118th Street,,,,bus_stop,,platform,,,,,,,41.6797503,-87.6421174
4170841074,node,transit,Halsted & 115th Street,,,,bus_stop,,platform,,,,,,,41.6853001,-87.64233
4170841075,node,transit,Halsted & 112th Street,,,,bus_stop,,platform,,,,,,,41.6906588,-87.6424677
4170841076,node,transit,Halsted & 115th Street,,,,bus_stop,,platform,,,,,,,41.6853523,-87.6419961
4170841077,node,transit,Halsted & 114th Street,,,,bus_stop,,platform,,,,,,,41.6867644,-87.6420593
4170841078,node,transit,Halsted & 120th Street,,,,bus_stop,,platform,,,,,,,41.6762313,-87.641726
4170841079,node,transit,Halsted & 118th Street,,,,bus_stop,,platform,,,,,,,41.6795342,-87.6418184
4170841080,node,transit,Halsted & 113th Street,,,,bus_stop,,platform,,,,,,,41.6885581,-87.6421157
4170841081,node,transit,Halsted & 120th Street,,,,bus_stop,,platform,,,,,,,41.675706,-87.6419719
4170841082,node,transit,12100 S Halsted (Metra),,,,bus_stop,,platform,,,,,,,41.6740211,-87.6416324
4170841083,node,transit,Halsted & 114th Street,,,,bus_stop,,platform,,,,,,,41.6870097,-87.6423602
4170841084,node,transit,12100 S Halsted (Metra),,,,bus_stop,,platform,,,,,,,41.6743741,-87.6419233
4170841085,node,transit,Halsted & 116th Street,,,,bus_stop,,platform,,,,,,,41.6833891,-87.6422422
4170841086,node,transit,Halsted & 122nd Street,,,,bus_stop,,platform,,,,,,,41.6724782,-87.6418809
4170841087,node,transit,Halsted & 122nd Street,,,,bus_stop,,platform,,,,,,,41.6722142,-87.6415733
4170867022,node,transit,Halsted & 123rd Street,,,,bus_stop,,platform,,,,,,,41.6708183,-87.6415419
4170867023,node,transit,Vermont & Halsted,,,,bus_stop,,platform,,,,,,,41.6620781,-87.6409219
4170867024,node,transit,Halsted & 126th Street,,,,bus_stop,,platform,,,,,,,41.6649685,-87.641349
4170867025,node,transit,Halsted & 124th Street,,,,bus_stop,,platform,,,,,,,41.6686182,-87.6414705
4170867026,node,transit,Halsted & 125th Street,,,,bus_stop,,platform,,,,,,,41.6668239,-87.6417026
4170867027,node,transit,124th Street & Halsted,,,,bus_stop,,platform,,,,,,,41.668651,-87.641881
4170867028,node,transit,Halsted & 125th Street,,,,bus_stop,,platform,,,,,,,41.6667829,-87.6414075
4170867029,node,transit,Halsted & 127th Street,,,,bus_stop,,platform,,,,,,,41.6633698,-87.6415798
4170867030,node,transit,Halsted & 124th Street,,,,bus_stop,,platform,,,,,,,41.6688393,-87.6417616
4170867031,node,transit,Vermont & Halsted,,,,bus_stop,,platform,,,,,,,41.6618944,-87.6416171
4170867032,node,transit,Halsted & 123rd Street,,,,bus_stop,,platform,,,,,,,41.6706738,-87.641813
4170867033,node,transit,Vermont & Halsted,,,,bus_stop,,platform,,,,,,,41.6620226,-87.6418059
4170867034,node,transit,127th Street & Emerald,,,,bus_stop,,platform,,,,,,,41.6633344,-87.6400621
4170867036,node,transit,Halsted & 126th Street,,,,bus_stop,,platform,,,,,,,41.6649865,-87.6416414
4170867037,node,transit,Lowe & 127th Street,,,,bus_stop,,platform,,,,,,,41.6631763,-87.6377169
4170867038,node,transit,Vermont & Union,,,,bus_stop,,platform,,,,,,,41.6625502,-87.6391397
4170867039,node,transit,127th Street & Halsted,,,,bus_stop,,platform,,,,,,,41.6633322,-87.6410609
4170872450,node,transit,Halsted & 128th Place,,,,bus_stop,,platform,,,,,,,41.6603435,-87.6411891
4170872451,node,transit,Halsted & 129th Street,,,,bus_stop,,platform,,,,,,,41.658586,-87.6414184
4170872452,node,transit,Halsted & 128th Place,,,,bus_stop,,platform,,,,,,,41.660592,-87.6414841
4170872453,node,transit,Halsted & 129th Street,,,,bus_stop,,platform,,,,,,,41.658393,-87.6411311
4172293889,node,transit,Halsted & 87th Street,,,,bus_stop,,platform,,,,,,,41.7357471,-87.6434573
4172293891,node,transit,Halsted & 90th Street,,,,bus_stop,,platform,,,,,,,41.7309026,-87.6436099
4172293897,node,transit,Halsted & 90th Street,,,,bus_stop,,platform,,,,,,,41.7306316,-87.6433158
4172293898,node,transit,Halsted & 91st Street,,,,bus_stop,,platform,,,,,,,41.7288704,-87.643571
4172293900,node,transit,Halsted & 88th Street,,,,bus_stop,,platform,,,,,,,41.7342146,-87.6434241
4172293901,node,transit,9030 S Halsted,,,,bus_stop,,platform,,,,,,,41.729678,-87.6433048
4172293904,node,transit,Halsted & Vincennes,,,,bus_stop,,platform,,,,,,,41.7371969,-87.6435134
4172293907,node,transit,Halsted & 94th Street,,,,bus_stop,,platform,,,,,,,41.7231598,-87.6431161
4172293911,node,transit,Halsted & 88th Street,,,,bus_stop,,platform,,,,,,,41.7344265,-87.6437117
4172293912,node,transit,Halsted & 91st Street,,,,bus_stop,,platform,,,,,,,41.7286675,-87.6432699
4172293915,node,transit,Halsted & 92nd Street,,,,bus_stop,,platform,,,,,,,41.7269732,-87.6435028
4172293916,node,transit,Halsted & 89th Street,,,,bus_stop,,platform,,,,,,,41.7326635,-87.6436614
4172293917,node,transit,Halsted & 87th Street,,,,bus_stop,,platform,,,,,,,41.7355648,-87.6437551
4172293920,node,transit,Halsted & 92nd Street,,,,bus_stop,,platform,,,,,,,41.7268209,-87.643219
4172293922,node,transit,Halsted & 89th Street,,,,bus_stop,,platform,,,,,,,41.7324522,-87.6433783
4172293923,node,transit,Halsted & Vincennes,,,,bus_stop,,platform,,,,,,,41.7374409,-87.6437437
4172293924,node,transit,Halsted & 93rd Street,,,,bus_stop,,platform,,,,,,,41.7250373,-87.6434502
4172293926,node,transit,Halsted & 93rd Street,,,,bus_stop,,platform,,,,,,,41.7253826,-87.6431825
4172293931,node,transit,Halsted & 94th Street,,,,bus_stop,,platform,,,,,,,41.723145,-87.6433893
4172293932,node,transit,9030 S Halsted,,,,bus_stop,,platform,,,,,,,41.72996,-87.6435803
4220880275,node,transit,93rd Street & Jeffery,,,,bus_stop,,platform,,,,,,,41.7262059,-87.5752601
4220880276,node,transit,93rd Street & Oglesby,,,,bus_stop,,platform,,,,,,,41.7263068,-87.5669537
4220880277,node,transit,93rd Street & Greenwood,,,,bus_stop,,platform,,,,,,,41.7258826,-87.5971553
4220880278,node,transit,93rd Street & Colfax,,,,bus_stop,,platform,,,,,,,41.7262319,-87.5609761
4220880279,node,transit,93rd Street & Escanaba,,,,bus_stop,,platform,,,,,,,41.726316,-87.5541005
4220880280,node,transit,Cottage Grove & Lyon,,,,bus_stop,,platform,,,,,,,41.7242586,-87.6046642
4220880282,node,transit,93rd Street & Bennett,,,,bus_stop,,platform,,,,,,,41.7260096,-87.5780298
4220880283,node,transit,93rd Street & Cregier,,,,bus_stop,,platform,,,,,,,41.7259701,-87.5804552
4220880284,node,transit,Cottage Grove & Lyon,,,,bus_stop,,platform,,,,,,,41.7239968,-87.6043765
4220880285,node,transit,93rd Street & Marquette,,,,bus_stop,,platform,,,,,,,41.7264015,-87.5578951
4220880286,node,transit,93rd Street & Paxton,,,,bus_stop,,platform,,,,,,,41.7261052,-87.5707074
4220880287,node,transit,Burley & 92nd Street,,,,bus_stop,,platform,,,,,,,41.7286668,-87.5455441
4220880288,node,transit,93rd Street & Bennett,,,,bus_stop,,platform,,,,,,,41.7261559,-87.5777663
4220883089,node,transit,Cottage Grove & 93rd Street,,,,bus_stop,,platform,,,,,,,41.7255552,-87.6044038
4220883090,node,transit,Buffalo & 92nd Street,,,,bus_stop,,platform,,,,,,,41.7284504,-87.5443547
4220883091,node,transit,Commercial & 92nd Street,,,,bus_stop,,platform,,,,,,,41.7280932,-87.5511165
4220883092,node,transit,93rd Street & Cregier,,,,bus_stop,,platform,,,,,,,41.7261203,-87.5801902
4220883093,node,transit,93rd Street & Drexel,,,,bus_stop,,platform,,,,,,,41.7256898,-87.6010981
4220883094,node,transit,Stony Island & 93rd Street,,,,bus_stop,,platform,,,,,,,41.7256508,-87.5855092
4220883095,node,transit,93rd Street & Drexel,,,,bus_stop,,platform,,,,,,,41.7258289,-87.6007944
4220883096,node,transit,91st Street & Buffalo,,,,bus_stop,,platform,,,,,,,41.7300798,-87.5445342
4220883097,node,transit,Jeffery & 93rd Street,,,,bus_stop,,platform,,,,,,,41.7263808,-87.5753609
4220883098,node,transit,Jeffery & 93rd Street,,,,bus_stop,,platform,,,,,,,41.7257744,-87.5755212
4220883100,node,transit,93rd Street & Woodlawn,,,,bus_stop,,platform,,,,,,,41.725779,-87.5950873
4220883101,node,transit,93rd Street & Greenwood,,,,bus_stop,,platform,,,,,,,41.7257479,-87.5974584
4220883102,node,transit,93rd Street & Essex,,,,bus_stop,,platform,,,,,,,41.726344,-87.5631311
4220883103,node,transit,93rd Street & Manistee,,,,bus_stop,,platform,,,,,,,41.7262804,-87.5568826
4220883104,node,transit,93rd Street & Essex,,,,bus_stop,,platform,,,,,,,41.7262093,-87.5634205
4220883105,node,transit,93rd Street & Yates,,,,bus_stop,,platform,,,,,,,41.7263149,-87.565579
4220883106,node,transit,Stony Island & 94th Street,,,,bus_stop,,platform,,,,,,,41.7242955,-87.5848768
4220883107,node,transit,93rd Street & Oglesby,,,,bus_stop,,platform,,,,,,,41.7261521,-87.5670745
4220883108,node,transit,Stony Island & 94th Street,,,,bus_stop,,platform,,,,,,,41.7243356,-87.5854361
4220883109,node,transit,Woodlawn & 94th Street,,,,bus_stop,,platform,,,,,,,41.7241394,-87.5949277
4220883110,node,transit,93rd Street & Clyde,,,,bus_stop,,platform,,,,,,,41.7260777,-87.5731468
4220883111,node,transit,Cottage Grove & 93rd Street,,,,bus_stop,,platform,,,,,,,41.7255288,-87.6047017
4220883112,node,transit,93rd Street & Marquette,,,,bus_stop,,platform,,,,,,,41.7262624,-87.5582408
4220883114,node,transit,93rd Street & Ellis,,,,bus_stop,,platform,,,,,,,41.7257168,-87.5995713
4220883115,node,transit,Exchange & Anthony,,,,bus_stop,,platform,,,,,,,41.7265637,-87.5539067
4220883117,node,transit,93rd Street & Woodlawn,,,,bus_stop,,platform,,,,,,,41.7259125,-87.5952362
4220883118,node,transit,92nd Street & Burley,,,,bus_stop,,platform,,,,,,,41.7283923,-87.545419
4220883119,node,transit,Commercial & 92nd Street,,,,bus_stop,,platform,,,,,,,41.7284115,-87.5512879
4220883120,node,transit,91st Street & Buffalo,,,,bus_stop,,platform,,,,,,,41.7302679,-87.5441347
4220883122,node,transit,93rd Street & Jeffery,,,,bus_stop,,platform,,,,,,,41.7260491,-87.5756078
4220883123,node,transit,93rd Street & Stony Island,,,,bus_stop,,platform,,,,,,,41.72607,-87.5848173
4220883124,node,transit,92nd Street & Commercial,,,,bus_stop,,platform,,,,,,,41.7283294,-87.551001
4220883125,node,transit,93rd Street & East End,,,,bus_stop,,platform,,,,,,,41.7260883,-87.5824641
4220883126,node,transit,Exchange & South Chicago,,,,bus_stop,,platform,,,,,,,41.7280145,-87.5526628
4220883127,node,transit,Stony Island & 93rd Street,,,,bus_stop,,platform,,,,,,,41.7258326,-87.5848574
4220883128,node,transit,Exchange & South Chicago,,,,bus_stop,,platform,,,,,,,41.7275802,-87.5526283
4220883129,node,transit,Stony Island & 95th Street,,,,bus_stop,,platform,,,,,,,41.7226193,-87.5853174
4220883130,node,transit,Woodlawn & 94th Street,,,,bus_stop,,platform,,,,,,,41.7239799,-87.594748
4220883131,node,transit,92nd Street & Baltimore,,,,bus_stop,,platform,,,,,,,41.7283638,-87.5481737
4220883132,node,transit,93rd Street & Colfax,,,,bus_stop,,platform,,,,,,,41.7263726,-87.5606732
4220883134,node,transit,93rd Street & East End,,,,bus_stop,,platform,,,,,,,41.725945,-87.5827814
4220883135,node,transit,Exchange & 92nd Street,,,,bus_stop,,platform,,,,,,,41.7280415,-87.5525012
4220883136,node,transit,93rd Street & Ellis,,,,bus_stop,,platform,,,,,,,41.7258611,-87.5995536
4220883137,node,transit,93rd Street & Manistee,,,,bus_stop,,platform,,,,,,,41.7264256,-87.5565024
4220883138,node,transit,92nd Street & Baltimore,,,,bus_stop,,platform,,,,,,,41.7282142,-87.548651
4220883139,node,transit,93rd Street & Clyde,,,,bus_stop,,platform,,,,,,,41.7262289,-87.5727901
4220883140,node,transit,92nd Street & Commercial,,,,bus_stop,,platform,,,,,,,41.728186,-87.5514182
4220883141,node,transit,93rd Street & Yates,,,,bus_stop,,platform,,,,,,,41.7261774,-87.5658311
4220883142,node,transit,93rd Street & Paxton,,,,bus_stop,,platform,,,,,,,41.7262528,-87.5704343
4220883143,node,transit,Stony Island & 95th Street,,,,bus_stop,,platform,,,,,,,41.722696,-87.5849471
4226123680,node,transit,91st Street & Houston,,,,bus_stop,,platform,,,,,,,41.730172,-87.5496774
4226123681,node,transit,87th Street & Buffalo,,,,bus_stop,,platform,,,,,,,41.7373854,-87.5446202
4226123682,node,transit,Commercial & 89th Street,,,,bus_stop,,platform,,,,,,,41.7338988,-87.5514518
4226123683,node,transit,Buffalo & 88th Street,,,,bus_stop,,platform,,,,,,,41.7357763,-87.5445397
4226123684,node,transit,Houston & 91st Street,,,,bus_stop,,platform,,,,,,,41.7298135,-87.5499656
4226123685,node,transit,Commercial & 88th Street,,,,bus_stop,,platform,,,,,,,41.7354217,-87.5512937
4226123686,node,transit,91st Street & Brandon,,,,bus_stop,,platform,,,,,,,41.7302239,-87.5467848
4226123687,node,transit,Commercial & 90th Street,,,,bus_stop,,platform,,,,,,,41.7320454,-87.5514062
4226123688,node,transit,Commercial & 88th Street,,,,bus_stop,,platform,,,,,,,41.7356923,-87.5515001
4226123689,node,transit,Buffalo & 91st Street,,,,bus_stop,,platform,,,,,,,41.7303539,-87.5444002
4226123690,node,transit,87th Street & Burley,,,,bus_stop,,platform,,,,,,,41.7373834,-87.5460954
4226123693,node,transit,Houston & 91st Street,,,,bus_stop,,platform,,,,,,,41.7299496,-87.549762
4226123694,node,transit,Commercial & 91st Street,,,,bus_stop,,platform,,,,,,,41.7299071,-87.5511514
4226123695,node,transit,91st Street & Brandon,,,,bus_stop,,platform,,,,,,,41.7300456,-87.547171
4226123697,node,transit,Commercial & 89th Street,,,,bus_stop,,platform,,,,,,,41.7340632,-87.5512618
4226123700,node,transit,Commercial & 90th Street,,,,bus_stop,,platform,,,,,,,41.7317701,-87.5512084
4226123703,node,transit,87th Street & Commercial,,,,bus_stop,,platform,,,,,,,41.7374643,-87.5518633
4226123704,node,transit,87th Street & Commercial,,,,bus_stop,,platform,,,,,,,41.7373024,-87.5516825
4226123705,node,transit,Commercial & 86th Street,,,,bus_stop,,platform,,,,,,,41.7393134,-87.5515671
4226123706,node,transit,Commercial & 86th Street,,,,bus_stop,,platform,,,,,,,41.7390945,-87.5513698
4226123707,node,transit,Commercial & 87th Street,,,,bus_stop,,platform,,,,,,,41.7375601,-87.5515443
4226123708,node,transit,91st Street & Houston,,,,bus_stop,,platform,,,,,,,41.7300216,-87.550049
4226123709,node,transit,91st Street & Commercial,,,,bus_stop,,platform,,,,,,,41.7301717,-87.5509583
4226123711,node,transit,Commercial & 87th Street,,,,bus_stop,,platform,,,,,,,41.7372333,-87.5513298
4226123712,node,transit,Buffalo & 89th Street,,,,bus_stop,,platform,,,,,,,41.733959,-87.5444942
4226123713,node,transit,Buffalo & 90th Street,,,,bus_stop,,platform,,,,,,,41.7321273,-87.5444512
4226123715,node,transit,Commercial & 91st Street,,,,bus_stop,,platform,,,,,,,41.729799,-87.5513566
4233452948,node,transit,11000 S Torrence,,,,bus_stop,,platform,,,,,,,41.6958297,-87.5593858
4233452953,node,transit,Commercial & 97th Street,,,,bus_stop,,platform,,,,,,,41.7189624,-87.5509273
4233452954,node,transit,Commercial & 100th Street,,,,bus_stop,,platform,,,,,,,41.7130917,-87.55115
4233452956,node,transit,Commercial & 100th Street,,,,bus_stop,,platform,,,,,,,41.7132441,-87.5508493
4233452969,node,transit,Commercial & 93rd Street/South Chicago,,,,bus_stop,,platform,,,,,,,41.7264307,-87.5510576
4233452972,node,transit,2701 E 104th Street,,,,bus_stop,,platform,,,,,,,41.7063061,-87.5578525
4233452975,node,transit,11000 S Torrence,,,,bus_stop,,platform,,,,,,,41.6956334,-87.5596269
4233452976,node,transit,Commercial & 101st Street,,,,bus_stop,,platform,,,,,,,41.7119526,-87.551595
4233452983,node,transit,Commercial & 104th Street,,,,bus_stop,,platform,,,,,,,41.7065043,-87.5547787
4233452987,node,transit,Commercial & 101st Street,,,,bus_stop,,platform,,,,,,,41.7117267,-87.5514529
4233452988,node,transit,104th Street & Torrence,,,,bus_stop,,platform,,,,,,,41.7064843,-87.5593361
4233459791,node,transit,2700 E 104th Street,,,,bus_stop,,platform,,,,,,,41.7065023,-87.5578579
4233459792,node,transit,Commercial & 96th Street,,,,bus_stop,,platform,,,,,,,41.7210615,-87.5511551
4233459794,node,transit,Commercial & 102nd Street,,,,bus_stop,,platform,,,,,,,41.7099224,-87.5521773
4233459796,node,transit,Commercial & 103rd Street,,,,bus_stop,,platform,,,,,,,41.7083365,-87.5531211
4233459800,node,transit,104th Street & Muskegon,,,,bus_stop,,platform,,,,,,,41.7063281,-87.5551652
4233459817,node,transit,Commercial & 98th Street,,,,bus_stop,,platform,,,,,,,41.7174278,-87.5511071
4233459819,node,transit,Torrence & 106th Street,,,,bus_stop,,platform,,,,,,,41.7031174,-87.559477
4233459821,node,transit,Commercial & 94th Street/Anthony,,,,bus_stop,,platform,,,,,,,41.7242207,-87.5512154
4233459822,node,transit,Commercial & 103rd Street,,,,bus_stop,,platform,,,,,,,41.7080934,-87.5530316
4233459824,node,transit,Commercial & 97th Street,,,,bus_stop,,platform,,,,,,,41.7192356,-87.5511347
4233459831,node,transit,Commercial & 98th Street,,,,bus_stop,,platform,,,,,,,41.7171843,-87.5508885
4233459832,node,transit,Torrence & 108th Street,,,,bus_stop,,platform,,,,,,,41.6992546,-87.5596724
4233459834,node,transit,11100 S Torrence,,,,bus_stop,,platform,,,,,,,41.6944426,-87.5596633
4233459838,node,transit,Commercial & 94th Street/Anthony,,,,bus_stop,,platform,,,,,,,41.7244595,-87.5510153
4233459840,node,transit,11100 S Torrence,,,,bus_stop,,platform,,,,,,,41.693817,-87.5593644
4233459844,node,transit,Commercial & 96th Street,,,,bus_stop,,platform,,,,,,,41.7208134,-87.5509467
4233459845,node,transit,Torrence & 108th Street,,,,bus_stop,,platform,,,,,,,41.6993046,-87.5594426
4233459846,node,transit,Torrence & 107th Street,,,,bus_stop,,platform,,,,,,,41.7009221,-87.559449
4233459848,node,transit,Commercial & 95th Street,,,,bus_stop,,platform,,,,,,,41.7229145,-87.5511923
4233459849,node,transit,Torrence & 109th Street,,,,bus_stop,,platform,,,,,,,41.6978279,-87.559652
4233459850,node,transit,Torrence & 106th Street,,,,bus_stop,,platform,,,,,,,41.702934,-87.5597219
4233459856,node,transit,Commercial & 93rd Street/South Chicago,,,,bus_stop,,platform,,,,,,,41.7270492,-87.5512882
4233459858,node,transit,Commercial & 95th Street,,,,bus_stop,,platform,,,,,,,41.7226024,-87.5509741
4233459860,node,transit,Commercial & 99th Street,,,,bus_stop,,platform,,,,,,,41.7155907,-87.551099
4233459863,node,transit,Commercial & 102nd Street,,,,bus_stop,,platform,,,,,,,41.7096741,-87.5525176
4233459868,node,transit,Torrence & 109th Street,,,,bus_stop,,platform,,,,,,,41.6979142,-87.5594155
4233459870,node,transit,Torrence & 107th Street,,,,bus_stop,,platform,,,,,,,41.7010695,-87.5596964
4233459881,node,transit,Commercial & 99th Street,,,,bus_stop,,platform,,,,,,,41.7153347,-87.5508689
4261930552,node,transit,95th Street & Morgan,,,,bus_stop,,platform,,,,,,,41.7212875,-87.6482046
4261930553,node,transit,95th Street & Vincennes,,,,bus_stop,,platform,,,,,,,41.7214813,-87.6512045
4261930554,node,transit,Vincennes & 95th Street,,,,bus_stop,,platform,,,,,,,41.7211877,-87.6505564
4261930555,node,transit,Vincennes & 95th Street,,,,bus_stop,,platform,,,,,,,41.7209936,-87.6508943
4261930556,node,transit,95th Street & Vincennes,,,,bus_stop,,platform,,,,,,,41.7212388,-87.6509628
4261930557,node,transit,95th Street & Vincennes (Metra),,,,bus_stop,,platform,,,,,,,41.7214933,-87.6499317
4261930558,node,transit,95th Street & Peoria,,,,bus_stop,,platform,,,,,,,41.7213117,-87.6457995
4261930559,node,transit,95th Street & Peoria,,,,bus_stop,,platform,,,,,,,41.7215417,-87.6455157
4261930560,node,transit,95th Street & Morgan,,,,bus_stop,,platform,,,,,,,41.7215141,-87.6479271
4261941803,node,transit,95th Street & Throop,,,,bus_stop,,platform,,,,,,,41.7211884,-87.6555189
4261941804,node,transit,95th Street & Racine,,,,bus_stop,,platform,,,,,,,41.7212106,-87.6531309
4261941805,node,transit,95th Street & Loomis,,,,bus_stop,,platform,,,,,,,41.7213989,-87.6575884
4261941806,node,transit,95th Street & Throop,,,,bus_stop,,platform,,,,,,,41.7214232,-87.6551895
4261941807,node,transit,95th Street & Loomis,,,,bus_stop,,platform,,,,,,,41.7211579,-87.657201
4261941808,node,transit,95th Street & Racine,,,,bus_stop,,platform,,,,,,,41.7214493,-87.6528145
4262003118,node,transit,95th Street & Laflin,,,,bus_stop,,platform,,,,,,,41.7213557,-87.6600941
4262003121,node,transit,95th Street & Longwood,,,,bus_stop,,platform,,,,,,,41.7212458,-87.6693104
4262003126,node,transit,95th Street & Leavitt,,,,bus_stop,,platform,,,,,,,41.7208894,-87.6773546
4262003129,node,transit,95th Street & Leavitt,,,,bus_stop,,platform,,,,,,,41.7211327,-87.6770949
4262003132,node,transit,95th Street & Hoyne,,,,bus_stop,,platform,,,,,,,41.7209284,-87.6740721
4262003134,node,transit,95th Street & Vanderpoel,,,,bus_stop,,platform,,,,,,,41.7210277,-87.6662902
4262003137,node,transit,Ashland & 95th Street,,,,bus_stop,,platform,,,,,,,41.7213979,-87.6628391
4262003139,node,transit,95th Street & Wood (Metra),,,,bus_stop,,platform,,,,,,,41.7212739,-87.6673255
4262003140,node,transit,Western & 94th Street,,,,bus_stop,,platform,,,,,,,41.7226531,-87.6819704
4262003143,node,transit,Western & 91st Street,,,,bus_stop,,platform,,,,,,,41.7283944,-87.6824482
4262003151,node,transit,95th Street & Longwood,,,,bus_stop,,platform,,,,,,,41.7210056,-87.6693023
4262003154,node,transit,95th Street & Bishop,,,,bus_stop,,platform,,,,,,,41.7211442,-87.6592505
4262003156,node,transit,95th Street & Winston,,,,bus_stop,,platform,,,,,,,41.7211194,-87.6607809
4262003163,node,transit,95th Street & Ashland,,,,bus_stop,,platform,,,,,,,41.721329,-87.6632169
4262003165,node,transit,95th Street & Western,,,,bus_stop,,platform,,,,,,,41.7207783,-87.683186
4262003167,node,transit,Western & 92nd Place,,,,bus_stop,,platform,,,,,,,41.724658,-87.6823684
4262003168,node,transit,95th Street & Longwood (Metra),,,,bus_stop,,platform,,,,,,,41.7210184,-87.6679352
4262003177,node,transit,95th Street & Bishop,,,,bus_stop,,platform,,,,,,,41.7213792,-87.658842
4262003182,node,transit,Western & 92nd Place,,,,bus_stop,,platform,,,,,,,41.724825,-87.6820589
4262003185,node,transit,95th Street & Vanderpoel,,,,bus_stop,,platform,,,,,,,41.7212879,-87.6659067
4262004489,node,transit,95th Street & Western,,,,bus_stop,,platform,,,,,,,41.7210746,-87.6826925
4262004493,node,transit,95th Street & Ashland,,,,bus_stop,,platform,,,,,,,41.7210976,-87.6629267
4262004494,node,transit,Ashland & 95th Street,,,,bus_stop,,platform,,,,,,,41.7216059,-87.6625317
4262004495,node,transit,95th Street & Oakley,,,,bus_stop,,platform,,,,,,,41.721097,-87.6795067
4262004502,node,transit,95th Street & Hoyne,,,,bus_stop,,platform,,,,,,,41.7211758,-87.6742832
4262004504,node,transit,Western & 94th Street,,,,bus_stop,,platform,,,,,,,41.7229684,-87.6822928
4262004506,node,transit,95th Street & Damen,,,,bus_stop,,platform,,,,,,,41.7212058,-87.6721803
4262004507,node,transit,95th Street & Claremont,,,,bus_stop,,platform,,,,,,,41.7208415,-87.6805622
4262004512,node,transit,Western & 95th Street,,,,bus_stop,,platform,,,,,,,41.7212539,-87.6819221
4262004514,node,transit,Western & 91st Street,,,,bus_stop,,platform,,,,,,,41.7280687,-87.6821419
4262004515,node,transit,95th Street & Damen,,,,bus_stop,,platform,,,,,,,41.7209535,-87.6720167
4262004518,node,transit,Western & 95th Street,,,,bus_stop,,platform,,,,,,,41.7203098,-87.682215
4262036637,node,transit,Western & 90th Street,,,,bus_stop,,platform,,,,,,,41.7302089,-87.6825396
4262036641,node,transit,Western & 87th Street,,,,bus_stop,,platform,,,,,,,41.7357166,-87.6826984
4262036643,node,transit,87th Street & Western,,,,bus_stop,,platform,,,,,,,41.7356693,-87.6822418
4262036644,node,transit,87th Street & Damen,,,,bus_stop,,platform,,,,,,,41.7355662,-87.6719792
4262036647,node,transit,87th Street & Western,,,,bus_stop,,platform,,,,,,,41.7354072,-87.6818865
4262036651,node,transit,87th Street & Longwood,,,,bus_stop,,platform,,,,,,,41.7357475,-87.6758609
4262036658,node,transit,Western & 89th Street,,,,bus_stop,,platform,,,,,,,41.7318764,-87.6822177
4262036680,node,transit,Western & 87th Street,,,,bus_stop,,platform,,,,,,,41.735303,-87.682333
4262036683,node,transit,Damen & 87th Street,,,,bus_stop,,platform,,,,,,,41.7360686,-87.672701
4262036688,node,transit,87th Street & Damen,,,,bus_stop,,platform,,,,,,,41.7358014,-87.6725698
4262036900,node,transit,Western & 89th Street,,,,bus_stop,,platform,,,,,,,41.7320145,-87.6825986
4262036907,node,transit,Western & 90th Street,,,,bus_stop,,platform,,,,,,,41.7303039,-87.6822198
4262036913,node,transit,87th Street & Longwood,,,,bus_stop,,platform,,,,,,,41.7354732,-87.67618
4321644616,node,transit,Jeffery & 86th Street,,,,bus_stop,,platform,,,,,,,41.739149,-87.5756709
4321644631,node,transit,Jeffery & 86th Street,,,,bus_stop,,platform,,,,,,,41.738615,-87.5758255
4321709138,node,transit,Jeffery & 87th Street,,,,bus_stop,,platform,,,,,,,41.7366672,-87.5758166
4321709139,node,transit,Jeffery & 87th Street,,,,bus_stop,,platform,,,,,,,41.7368795,-87.5755834
4321709140,node,transit,87th Street & Jeffery,,,,bus_stop,,platform,,,,,,,41.7371459,-87.575532
4321709141,node,transit,87th Street & Jeffery,,,,bus_stop,,platform,,,,,,,41.7369795,-87.5753154
4321956768,node,transit,Jeffery & 96th Street,,,,bus_stop,,platform,,,,,,,41.7203057,-87.5753895
4321956769,node,transit,Jeffery & 88th Street,,,,bus_stop,,platform,,,,,,,41.735295,-87.5755974
4321956770,node,transit,100th Street & Crandon,,,,bus_stop,,platform,,,,,,,41.7135574,-87.5674188
4321956771,node,transit,Yates & 101st Street,,,,bus_stop,,platform,,,,,,,41.7118347,-87.5646459
4321956772,node,transit,103rd Street & Bensley,,,,bus_stop,,platform,,,,,,,41.7082003,-87.5631311
4321956773,node,transit,Van Vlissingen & 99th Street,,,,bus_stop,,platform,,,,,,,41.7154996,-87.5741467
4321956774,node,transit,Jeffery & 90th Street,,,,bus_stop,,platform,,,,,,,41.7313529,-87.5756599
4321956775,node,transit,Jeffery & 91st Street,,,,bus_stop,,platform,,,,,,,41.73009,-87.5754526
4321956776,node,transit,Yates & 101st Street,,,,bus_stop,,platform,,,,,,,41.711587,-87.564476
4321956777,node,transit,Jeffery & 89th Street,,,,bus_stop,,platform,,,,,,,41.7338116,-87.5755088
4321956778,node,transit,Jeffery & 91st Street,,,,bus_stop,,platform,,,,,,,41.7294502,-87.5756151
4321956779,node,transit,Jeffery & 95th Street,,,,bus_stop,,platform,,,,,,,41.7222916,-87.5752487
4321956780,node,transit,Yates & 102nd Street,,,,bus_stop,,platform,,,,,,,41.7100058,-87.564617
4321956781,node,transit,Yates & 102nd Street,,,,bus_stop,,platform,,,,,,,41.7097792,-87.5644518
4321956782,node,transit,100th Street & Clyde,,,,bus_stop,,platform,,,,,,,41.7134992,-87.5717098
4321956783,node,transit,Jeffery & 92nd Street,,,,bus_stop,,platform,,,,,,,41.7282407,-87.5754243
4321956784,node,transit,Van Vlissingen & 99th Street,,,,bus_stop,,platform,,,,,,,41.7150149,-87.5739337
4321956785,node,transit,103rd Street & Bensley,,,,bus_stop,,platform,,,,,,,41.70804,-87.5635026
4321956786,node,transit,Yates & 103rd Street,,,,bus_stop,,platform,,,,,,,41.7082821,-87.5646054
4321956787,node,transit,103rd Street & Oglesby,,,,bus_stop,,platform,,,,,,,41.7081599,-87.5655586
4321956788,node,transit,100th Street & Paxton,,,,bus_stop,,platform,,,,,,,41.7134055,-87.5696127
4321956989,node,transit,Jeffery & 95th Street,,,,bus_stop,,platform,,,,,,,41.722137,-87.5754483
4321956990,node,transit,Jeffery & 98th Street,,,,bus_stop,,platform,,,,,,,41.7173868,-87.5751449
4321956991,node,transit,100th Street & Yates,,,,bus_stop,,platform,,,,,,,41.7135997,-87.5650486
4321956992,node,transit,Jeffery & 97th Street,,,,bus_stop,,platform,,,,,,,41.7184762,-87.5753443
4321956993,node,transit,100th Street & Yates,,,,bus_stop,,platform,,,,,,,41.7134519,-87.5647603
4321956994,node,transit,Jeffery & 90th Street,,,,bus_stop,,platform,,,,,,,41.7318749,-87.5755076
4321956995,node,transit,100th Street & Paxton,,,,bus_stop,,platform,,,,,,,41.7135227,-87.5697928
4321956996,node,transit,100th Street & Crandon,,,,bus_stop,,platform,,,,,,,41.713434,-87.5665605
4321956997,node,transit,103rd Street & Luella,,,,bus_stop,,platform,,,,,,,41.7081243,-87.5679703
4321956998,node,transit,103rd Street & Oglesby,,,,bus_stop,,platform,,,,,,,41.7080133,-87.5658546
4321956999,node,transit,Jeffery & 92nd Street,,,,bus_stop,,platform,,,,,,,41.7276927,-87.5755659
4321957000,node,transit,Jeffery & 97th Street,,,,bus_stop,,platform,,,,,,,41.7188542,-87.5751808
4321957001,node,transit,100th Street & Clyde,,,,bus_stop,,platform,,,,,,,41.713368,-87.5713684
4321957003,node,transit,Jeffery & 96th Street,,,,bus_stop,,platform,,,,,,,41.7209257,-87.5752348
4321957004,node,transit,Jeffery & 88th Street,,,,bus_stop,,platform,,,,,,,41.7349058,-87.5757525
4321957005,node,transit,103rd Street & Luella,,,,bus_stop,,platform,,,,,,,41.7079696,-87.5683665
4321957006,node,transit,Yates & 103rd Street,,,,bus_stop,,platform,,,,,,,41.7085227,-87.5644358
4321957007,node,transit,Jeffery & 98th Street,,,,bus_stop,,platform,,,,,,,41.717189,-87.5753227
4321957008,node,transit,Jeffery & 89th Street,,,,bus_stop,,platform,,,,,,,41.7331134,-87.5757127
4322410899,node,transit,Stony Island & 90th Street,,,,bus_stop,,platform,,,,,,,41.7315601,-87.5856337
4322410900,node,transit,Stony Island & 90th Street,,,,bus_stop,,platform,,,,,,,41.7313599,-87.5849886
4322410901,node,transit,Stony Island & 88th Street,,,,bus_stop,,platform,,,,,,,41.734998,-87.5850658
4322410902,node,transit,Stony Island & 92nd Street,,,,bus_stop,,platform,,,,,,,41.727717,-87.5849103
4322410903,node,transit,Stony Island & 91st Street,,,,bus_stop,,platform,,,,,,,41.7293081,-87.5856017
4322410904,node,transit,Stony Island & 89th Street,,,,bus_stop,,platform,,,,,,,41.7332487,-87.585023
4322410905,node,transit,Stony Island & 88th Street,,,,bus_stop,,platform,,,,,,,41.735205,-87.5857155
4322410906,node,transit,Stony Island & 89th Street,,,,bus_stop,,platform,,,,,,,41.7333844,-87.5856929
4322410907,node,transit,Stony Island & 92nd Street,,,,bus_stop,,platform,,,,,,,41.7279239,-87.5855562
4322410908,node,transit,Stony Island & 91st Street,,,,bus_stop,,platform,,,,,,,41.7294972,-87.5849365
4322552642,node,transit,87th Street & Stony Island (Nearside),,,,bus_stop,,platform,,,,,,,41.7368392,-87.5858457
4322552643,node,transit,Stony Island & 87th Street,,,,bus_stop,,platform,,,,,,,41.736773,-87.5850894
4322552644,node,transit,Stony Island & 87th Street,,,,bus_stop,,platform,,,,,,,41.7370654,-87.5857718
4322552646,node,transit,87th Street & Stony Island (Farside),,,,bus_stop,,platform,,,,,,,41.7369848,-87.5860046
4322552647,node,transit,87th Street & Stony Island (Farside),,,,bus_stop,,platform,,,,,,,41.7368592,-87.5848185
4322552648,node,transit,87th Street & Stony Island (Nearside),,,,bus_stop,,platform,,,,,,,41.7370072,-87.5850009
4322579964,node,transit,Stony Island & 86th Street,,,,bus_stop,,platform,,,,,,,41.7386253,-87.5851423
4322579970,node,transit,Stony Island & 86th Street,,,,bus_stop,,platform,,,,,,,41.7388477,-87.585804
4335708327,node,transit,87th Street & Racine,,,,,,stop_position,,,,,,,41.7359303,-87.6537165
4335708328,node,transit,87th Street & Racine,,,,,,stop_position,,,,,,,41.7359406,-87.6529858
4375787475,node,transit,Route 53 & Chambers,,,,bus_stop,,platform,,,,,,,41.6641521,-88.0691048
4440009764,node,transit,Western & 112th Street,,,,bus_stop,,platform,,,,,,,41.6897037,-87.680954
4440009765,node,transit,Western & 111th Street,,,,bus_stop,,platform,,,,,,,41.6914513,-87.6812976
4440009766,node,transit,Western & 119th Street,,,,bus_stop,,platform,,,,,,,41.6779688,-87.6805705
4440009767,node,transit,Western & 118th Street,,,,bus_stop,,platform,,,,,,,41.6788341,-87.6806056
4440009768,node,transit,Western & 113th Street,,,,bus_stop,,platform,,,,,,,41.688272,-87.6811981
4440009769,node,transit,Western & 112th Street,,,,bus_stop,,platform,,,,,,,41.6899255,-87.6812517
4440009771,node,transit,Western & 110th Street,,,,bus_stop,,platform,,,,,,,41.6938697,-87.6810847
4440009772,node,transit,Western & 114th Street,,,,bus_stop,,platform,,,,,,,41.6864909,-87.6811385
4440009773,node,transit,Western & 115th Street,,,,bus_stop,,platform,,,,,,,41.6846593,-87.6810898
4440009774,node,transit,Western & 117th Street,,,,bus_stop,,platform,,,,,,,41.6805711,-87.6806694
4440009775,node,transit,Western & 117th Street,,,,bus_stop,,platform,,,,,,,41.6810237,-87.6809835
4440009776,node,transit,Western & 119th Street,,,,bus_stop,,platform,,,,,,,41.676798,-87.6808183
4440009777,node,transit,Western & 115th Street,,,,bus_stop,,platform,,,,,,,41.6848491,-87.6807923
4440009778,node,transit,Western & 111th Street,,,,bus_stop,,platform,,,,,,,41.6921528,-87.6810211
4440009779,node,transit,Western & 109th Street,,,,bus_stop,,platform,,,,,,,41.6956977,-87.6811391
4440009781,node,transit,Western & 118th Street,,,,bus_stop,,platform,,,,,,,41.6792324,-87.6809301
4440009785,node,transit,Western & 116th Street,,,,bus_stop,,platform,,,,,,,41.6829245,-87.6807454
4440009786,node,transit,Western & 109th Street,,,,bus_stop,,platform,,,,,,,41.6955525,-87.6814295
4440010489,node,transit,Western & 114th Street,,,,bus_stop,,platform,,,,,,,41.6859374,-87.6808279
4440010491,node,transit,Western & 113th Street,,,,bus_stop,,platform,,,,,,,41.6879551,-87.6808892
4440010492,node,transit,Western & 116th Street,,,,bus_stop,,platform,,,,,,,41.6828423,-87.6810362
4440010493,node,transit,Western & 110th Street,,,,bus_stop,,platform,,,,,,,41.6937289,-87.6813751
4440039984,node,transit,Western & 98th Street,,,,bus_stop,,platform,,,,,,,41.7153816,-87.6817401
4440039985,node,transit,Western & 100th Street,,,,bus_stop,,platform,,,,,,,41.7117074,-87.6816327
4440039986,node,transit,Western & 103rd Street,,,,bus_stop,,platform,,,,,,,41.7066375,-87.6814879
4440039987,node,transit,Western & 104th Street,,,,bus_stop,,platform,,,,,,,41.7046919,-87.6817353
4440039988,node,transit,Western & 98th Street,,,,bus_stop,,platform,,,,,,,41.715672,-87.6820647
4440039991,node,transit,Western & 97th Street,,,,bus_stop,,platform,,,,,,,41.717292,-87.6821286
4440039992,node,transit,Western & 103rd Street,,,,bus_stop,,platform,,,,,,,41.7060164,-87.6817699
4440039993,node,transit,Western & 107th Street,,,,bus_stop,,platform,,,,,,,41.6988502,-87.6815421
4440039995,node,transit,Western & 96th Street,,,,bus_stop,,platform,,,,,,,41.718888,-87.6821775
4440039997,node,transit,Western & 108th Street,,,,bus_stop,,platform,,,,,,,41.6973812,-87.6814859
4440039998,node,transit,Western & 107th Street,,,,bus_stop,,platform,,,,,,,41.6993662,-87.6812599
4440039999,node,transit,Western & 105th Street,,,,bus_stop,,platform,,,,,,,41.7028968,-87.6813619
4440040000,node,transit,Western & 102nd Street,,,,bus_stop,,platform,,,,,,,41.7083302,-87.6818345
4440040001,node,transit,Western & 106th Street,,,,bus_stop,,platform,,,,,,,41.701031,-87.6816058
4440040007,node,transit,Western & 97th Street,,,,bus_stop,,platform,,,,,,,41.717608,-87.6818366
4440040009,node,transit,Western & 108th Street,,,,bus_stop,,platform,,,,,,,41.697164,-87.681172
4440040010,node,transit,Western & 96th Street,,,,bus_stop,,platform,,,,,,,41.7189974,-87.6818769
4440040011,node,transit,Western & 99th Street,,,,bus_stop,,platform,,,,,,,41.7138035,-87.6819857
4440040013,node,transit,Western & 101st Street,,,,bus_stop,,platform,,,,,,,41.7101964,-87.6819069
4440040014,node,transit,Western & 99th Street,,,,bus_stop,,platform,,,,,,,41.7134934,-87.6816998
4440040016,node,transit,Western & 102nd Street,,,,bus_stop,,platform,,,,,,,41.7080813,-87.6815201
4440040017,node,transit,Western & 105th Street,,,,bus_stop,,platform,,,,,,,41.7025311,-87.6816601
4440040018,node,transit,Western & 104th Street,,,,bus_stop,,platform,,,,,,,41.7044228,-87.6814182
4440040019,node,transit,Western & 100th Street,,,,bus_stop,,platform,,,,,,,41.7120205,-87.6819418
4440040020,node,transit,Western & 106th Street,,,,bus_stop,,platform,,,,,,,41.700799,-87.6813001
4440040021,node,transit,Western & 101st Street,,,,bus_stop,,platform,,,,,,,41.7102257,-87.6815845
4493799655,node,transit,Vincennes & 109th Street,,,,bus_stop,,platform,,,,,,,41.6956752,-87.6607529
4493799656,node,transit,Vincennes & 108th Place,,,,bus_stop,,platform,,,,,,,41.6965597,-87.660136
4493799657,node,transit,Vincennes & Ashland,,,,bus_stop,,platform,,,,,,,41.6945602,-87.6617621
4493799658,node,transit,Vincennes & Winston,,,,bus_stop,,platform,,,,,,,41.7087123,-87.6552046
4493799659,node,transit,111th Street & Washtenaw,,,,bus_stop,,platform,,,,,,,41.6916437,-87.688708
4493799660,node,transit,111th Street & Campbell,,,,bus_stop,,platform,,,,,,,41.6917038,-87.6838184
4493799661,node,transit,Mt. Greenwood Cemetery,,,,bus_stop,,platform,,,,,,,41.6917401,-87.6930391
4493799663,node,transit,Vincennes & 99th Street,,,,bus_stop,,platform,,,,,,,41.714206,-87.653386
4493799664,node,transit,Vincennes & Winston,,,,bus_stop,,platform,,,,,,,41.7091148,-87.6552723
4493799665,node,transit,Vincennes & 104th Street,,,,bus_stop,,platform,,,,,,,41.7050661,-87.6567711
4493799666,node,transit,111th Street & Bell,,,,bus_stop,,platform,,,,,,,41.6919296,-87.6773483
4493799669,node,transit,Mt. Olivet Cemetery,,,,bus_stop,,platform,,,,,,,41.6915916,-87.6935002
4493799670,node,transit,111th Street & Washtenaw,,,,bus_stop,,platform,,,,,,,41.6917901,-87.6883728
4493799671,node,transit,111th Street & Campbell,,,,bus_stop,,platform,,,,,,,41.6918503,-87.683496
4493799672,node,transit,111th Street & Sacramento,,,,bus_stop,,platform,,,,,,,41.691554,-87.6962402
4493799673,node,transit,111th Street & Lawndale,,,,bus_stop,,platform,,,,,,,41.6913088,-87.7133659
4493799674,node,transit,Vincennes & 103rd Street,,,,bus_stop,,platform,,,,,,,41.7066128,-87.6559288
4493799675,node,transit,Vincennes & Chelsea,,,,bus_stop,,platform,,,,,,,41.6929979,-87.6628323
4493799677,node,transit,111th Street & Hamlin,,,,bus_stop,,platform,,,,,,,41.6914165,-87.7153263
4493799678,node,transit,Monterey & Hermosa,,,,bus_stop,,platform,,,,,,,41.6909588,-87.6670895
4493799679,node,transit,111th Street & Longwood,,,,bus_stop,,platform,,,,,,,41.6920366,-87.671697
4493799680,node,transit,111th Street & Hale (Metra),,,,bus_stop,,platform,,,,,,,41.6918641,-87.6707829
4493799681,node,transit,Vincennes & 99th Street,,,,bus_stop,,platform,,,,,,,41.7138881,-87.6532519
4493799682,node,transit,111th Street & St. Louis,,,,bus_stop,,platform,,,,,,,41.691389,-87.7083212
4493799683,node,transit,111th Street & Lawndale,,,,bus_stop,,platform,,,,,,,41.6914422,-87.7134814
4493799684,node,transit,Vincennes & 105th Street,,,,bus_stop,,platform,,,,,,,41.7030142,-87.657333
4493799685,node,transit,Vincennes & 108th Place,,,,bus_stop,,platform,,,,,,,41.6967935,-87.660172
4493799686,node,transit,Vincennes & 100th Place,,,,bus_stop,,platform,,,,,,,41.7112511,-87.6542712
4493799687,node,transit,10602 S Vincennes,,,,bus_stop,,platform,,,,,,,41.7012746,-87.6579827
4493799688,node,transit,111th Street & Homan,,,,bus_stop,,platform,,,,,,,41.6914104,-87.7059406
4493799989,node,transit,Vincennes & 110th Street,,,,bus_stop,,platform,,,,,,,41.693849,-87.6620305
4493799990,node,transit,Vincennes & 105th Street,,,,bus_stop,,platform,,,,,,,41.7032382,-87.657449
4493799991,node,transit,111th Street & Hamlin,,,,bus_stop,,platform,,,,,,,41.6912753,-87.715624
4493799992,node,transit,2600 W 111th Street,,,,bus_stop,,platform,,,,,,,41.6916879,-87.6863182
4493799993,node,transit,111th Street & Homan,,,,bus_stop,,platform,,,,,,,41.6915656,-87.7056006
4493799994,node,transit,Vincennes & 107th Street,,,,bus_stop,,platform,,,,,,,41.6991454,-87.6589627
4493799995,node,transit,111th Street & Kedzie,,,,bus_stop,,platform,,,,,,,41.6916512,-87.7006471
4493799997,node,transit,Vincennes & 104th Street,,,,bus_stop,,platform,,,,,,,41.7048456,-87.656657
4493799998,node,transit,111th Street & Central Park,,,,bus_stop,,platform,,,,,,,41.6914802,-87.71084
4493800000,node,transit,111th Street & Central Park,,,,bus_stop,,platform,,,,,,,41.6913612,-87.7103397
4493800001,node,transit,Monterey & Esmond,,,,bus_stop,,platform,,,,,,,41.6913491,-87.668323
4493800004,node,transit,111th Street & Hoyne,,,,bus_stop,,platform,,,,,,,41.6918076,-87.6742953
4493800005,node,transit,111th Street & Hoyne,,,,bus_stop,,platform,,,,,,,41.6919965,-87.6738749
4493800007,node,transit,111th Street & Albany,,,,bus_stop,,platform,,,,,,,41.6915215,-87.6985384
4493800008,node,transit,Monterey & Homewood,,,,bus_stop,,platform,,,,,,,41.6916859,-87.6699862
4493800009,node,transit,Monterey & Hermosa,,,,bus_stop,,platform,,,,,,,41.6907485,-87.6670492
4493800011,node,transit,111th Street & Kedzie,,,,bus_stop,,platform,,,,,,,41.6914995,-87.7010113
4493800012,node,transit,111th Street & Western,,,,bus_stop,,platform,,,,,,,41.6918763,-87.6809187
4493800013,node,transit,Vincennes & 100th Place,,,,bus_stop,,platform,,,,,,,41.7114655,-87.6544053
4493800014,node,transit,Vincennes & Monterey,,,,bus_stop,,platform,,,,,,,41.6902818,-87.6646541
4493800015,node,transit,Vincennes & Monterey,,,,bus_stop,,platform,,,,,,,41.6903972,-87.6643753
4493800016,node,transit,111th Street & California,,,,bus_stop,,platform,,,,,,,41.6917601,-87.6908292
4493800017,node,transit,Vincennes & 98th Street,,,,bus_stop,,platform,,,,,,,41.7159634,-87.652732
4493800018,node,transit,Vincennes & 107th Street,,,,bus_stop,,platform,,,,,,,41.6992704,-87.6586888
4493800019,node,transit,111th Street & St. Louis,,,,bus_stop,,platform,,,,,,,41.6915277,-87.7080361
4493800021,node,transit,111th Street & Spaulding,,,,bus_stop,,platform,,,,,,,41.6914667,-87.7034056
4493800022,node,transit,111th Street & Sacramento,,,,bus_stop,,platform,,,,,,,41.6917059,-87.6957328
4493800023,node,transit,Vincennes & 97th Street,,,,bus_stop,,platform,,,,,,,41.7173339,-87.6520051
4493800024,node,transit,111th Street & California,,,,bus_stop,,platform,,,,,,,41.6915888,-87.6910174
4493800025,node,transit,Vincennes & 111th Street,,,,bus_stop,,platform,,,,,,,41.6917427,-87.6637073
4493800026,node,transit,111th Street & Albany,,,,bus_stop,,platform,,,,,,,41.6916739,-87.6982648
4493800027,node,transit,Vincennes & 96th Street,,,,bus_stop,,platform,,,,,,,41.7193205,-87.6514846
4493800028,node,transit,111th Street & Bell,,,,bus_stop,,platform,,,,,,,41.691749,-87.6778336
4493800029,node,transit,111th Street & Western,,,,bus_stop,,platform,,,,,,,41.691692,-87.6804895
4493800030,node,transit,10602 S Vincennes,,,,bus_stop,,platform,,,,,,,41.7014174,-87.658121
4493800032,node,transit,Vincennes & 96th Street,,,,bus_stop,,platform,,,,,,,41.7191421,-87.6513534
4493800033,node,transit,Vincennes & 98th Street,,,,bus_stop,,platform,,,,,,,41.7157237,-87.6526227
4493800034,node,transit,Vincennes & 111th Street,,,,bus_stop,,platform,,,,,,,41.6919563,-87.6633505
4493800035,node,transit,Vincennes & 97th Place,,,,bus_stop,,platform,,,,,,,41.7171031,-87.6523015
4493800036,node,transit,111th Street & Spaulding,,,,bus_stop,,platform,,,,,,,41.6916013,-87.7032238
4493800037,node,transit,Monterey & Hale (Metra),,,,bus_stop,,platform,,,,,,,41.6919902,-87.6703323
4493800039,node,transit,Vincennes & 103rd Street,,,,bus_stop,,platform,,,,,,,41.7072292,-87.6559752
4493800040,node,transit,111th Street & Rockwell,,,,bus_stop,,platform,,,,,,,41.6918173,-87.685784
4493800041,node,transit,Vincennes & 109th Street,,,,bus_stop,,platform,,,,,,,41.6959261,-87.6607857
4496239693,node,transit,Pulaski & 111th Street,,,,bus_stop,,platform,,,,,,,41.6917649,-87.7205169
4496239694,node,transit,Pulaski & 115th Street,,,,bus_stop,,platform,,,,,,,41.6843274,-87.7199224
4496239695,node,transit,Pulaski & 111th Street,,,,bus_stop,,platform,,,,,,,41.6910551,-87.7201379
4496239696,node,transit,111th Street & Pulaski WB,,,,bus_stop,,platform,,,,,,,41.6913738,-87.7212355
4496239697,node,transit,115th Street & Pulaski,,,,bus_stop,,platform,,,,,,,41.6839135,-87.7194362
4496239698,node,transit,Pulaski & 115th Street,,,,bus_stop,,platform,,,,,,,41.6835292,-87.7201747
4496239699,node,transit,111th Street & Pulaski EB,,,,bus_stop,,platform,,,,,,,41.6911649,-87.7206415
4498842545,node,transit,103rd Street & Lawndale,,,,bus_stop,,platform,,,,,,,41.70592,-87.7137327
4498842546,node,transit,103rd Street & Spaulding,,,,bus_stop,,platform,,,,,,,41.706277,-87.7035921
4498842547,node,transit,103rd Street & St. Louis,,,,bus_stop,,platform,,,,,,,41.7059982,-87.7089196
4498842549,node,transit,Pulaski & 102nd Street,,,,bus_stop,,platform,,,,,,,41.7078064,-87.7211084
4498842550,node,transit,Pulaski & 100th Street,,,,bus_stop,,platform,,,,,,,41.7114602,-87.7212221
4498842551,node,transit,Pulaski & 100th Street,,,,bus_stop,,platform,,,,,,,41.7112931,-87.7209694
4498842553,node,transit,Pulaski & 103rd Street,,,,bus_stop,,platform,,,,,,,41.7056602,-87.7207776
4498842554,node,transit,103rd Street & St. Louis,,,,bus_stop,,platform,,,,,,,41.7062029,-87.7085341
4498842555,node,transit,103rd Street & Hamlin,,,,bus_stop,,platform,,,,,,,41.7058765,-87.7161609
4498842556,node,transit,103rd Street & Spaulding,,,,bus_stop,,platform,,,,,,,41.7060629,-87.7039918
4498842558,node,transit,Pulaski & 101st Street,,,,bus_stop,,platform,,,,,,,41.7096204,-87.7211702
4498842559,node,transit,Pulaski & 102nd Street,,,,bus_stop,,platform,,,,,,,41.7074446,-87.7208411
4498842560,node,transit,103rd Street & Homan,,,,bus_stop,,platform,,,,,,,41.7062431,-87.7060919
4498842561,node,transit,103rd Street & Hamlin,,,,bus_stop,,platform,,,,,,,41.7060869,-87.7158525
4498842563,node,transit,103rd Street & Homan,,,,bus_stop,,platform,,,,,,,41.7060381,-87.7064244
4498842564,node,transit,103rd Street & Springfield,,,,bus_stop,,platform,,,,,,,41.7058466,-87.7186393
4498842566,node,transit,103rd Street & Springfield,,,,bus_stop,,platform,,,,,,,41.7060423,-87.7183825
4498842567,node,transit,Pulaski & 103rd Street,,,,bus_stop,,platform,,,,,,,41.7055703,-87.7210318
4498842568,node,transit,103rd Street & Central Park,,,,bus_stop,,platform,,,,,,,41.705961,-87.7112825
4498842569,node,transit,103rd Street & Central Park,,,,bus_stop,,platform,,,,,,,41.7062109,-87.7109843
4498842570,node,transit,103rd Street & Kedzie,,,,bus_stop,,platform,,,,,,,41.7063021,-87.7010876
4498842571,node,transit,103rd Street & Kedzie,,,,bus_stop,,platform,,,,,,,41.7060627,-87.7015395
4498842573,node,transit,103rd Street & Lawndale,,,,bus_stop,,platform,,,,,,,41.7061269,-87.7134331
4498842574,node,transit,Pulaski & 101st Street,,,,bus_stop,,platform,,,,,,,41.7093859,-87.720908
4499012870,node,transit,103rd Street & Francisco,,,,bus_stop,,platform,,,,,,,41.7063901,-87.6938321
4499012871,node,transit,103rd Street & Charles,,,,bus_stop,,platform,,,,,,,41.7066905,-87.6588038
4499012872,node,transit,103rd Street & Leavitt,,,,bus_stop,,platform,,,,,,,41.7064015,-87.6769784
4499012873,node,transit,103rd Street & Prospect,,,,bus_stop,,platform,,,,,,,41.7066478,-87.662288
4499012874,node,transit,103rd Street & Campbell,,,,bus_stop,,platform,,,,,,,41.7062931,-87.6842775
4499012876,node,transit,1700 W 103rd Street,,,,bus_stop,,platform,,,,,,,41.7065789,-87.665119
4499012877,node,transit,103rd Street & Prospect,,,,bus_stop,,platform,,,,,,,41.7067717,-87.6619227
4499012878,node,transit,103rd Street & Bell,,,,bus_stop,,platform,,,,,,,41.7064873,-87.6782452
4499012882,node,transit,103rd Street & Church,,,,bus_stop,,platform,,,,,,,41.7066793,-87.6604459
4499012883,node,transit,103rd Street & Union,,,,bus_stop,,platform,,,,,,,41.707021,-87.6402504
4499012884,node,transit,103rd Street & Albany,,,,bus_stop,,platform,,,,,,,41.7060888,-87.6991584
4499012885,node,transit,103rd Street & Leavitt,,,,bus_stop,,platform,,,,,,,41.7065174,-87.6765944
4499012888,node,transit,103rd Street & Charles,,,,bus_stop,,platform,,,,,,,41.7068213,-87.6585102
4499014589,node,transit,103rd Street & Bell,,,,bus_stop,,platform,,,,,,,41.7063655,-87.6781533
4499014590,node,transit,103rd Street & Vincennes,,,,bus_stop,,platform,,,,,,,41.7066812,-87.6563276
4499014592,node,transit,103rd Street & Perry,,,,bus_stop,,platform,,,,,,,41.7072169,-87.6257725
4499014595,node,transit,103rd Street & Halsted,,,,bus_stop,,platform,,,,,,,41.7068408,-87.6430345
4499014596,node,transit,103rd Street & California,,,,bus_stop,,platform,,,,,,,41.7062129,-87.691616
4499014597,node,transit,103rd Street & Perry,,,,bus_stop,,platform,,,,,,,41.7070665,-87.6261151
4499014599,node,transit,103rd Street & Union,,,,bus_stop,,platform,,,,,,,41.7068812,-87.6405752
4499014600,node,transit,103rd Street & Morgan,,,,bus_stop,,platform,,,,,,,41.706946,-87.64753
4499014601,node,transit,103rd Street & Peoria,,,,bus_stop,,platform,,,,,,,41.7068312,-87.645451
4499014602,node,transit,103rd Street & Seeley,,,,bus_stop,,platform,,,,,,,41.7064527,-87.6731777
4499014603,node,transit,103rd Street & Seeley (Farside),,,,bus_stop,,platform,,,,,,,41.7065875,-87.6728848
4499014604,node,transit,2600 W 103rd Street,,,,bus_stop,,platform,,,,,,,41.7064703,-87.6863844
4499014607,node,transit,103rd Street & Wallace,,,,bus_stop,,platform,,,,,,,41.7069018,-87.6381355
4499014609,node,transit,103rd Street & Sacramento,,,,bus_stop,,platform,,,,,,,41.7061489,-87.6968678
4499014611,node,transit,103rd Street & California,,,,bus_stop,,platform,,,,,,,41.7064187,-87.6913283
4499014613,node,transit,103rd Street & Aberdeen,,,,bus_stop,,platform,,,,,,,41.7069338,-87.6499694
4499014614,node,transit,2600 W 103rd Street,,,,bus_stop,,platform,,,,,,,41.706273,-87.6868015
4499014615,node,transit,103rd Street & Wentworth,,,,bus_stop,,platform,,,,,,,41.7070406,-87.6284224
4499014617,node,transit,103rd Street & Oakley,,,,bus_stop,,platform,,,,,,,41.7064653,-87.6798331
4499014619,node,transit,103rd Street & Albany,,,,bus_stop,,platform,,,,,,,41.7063421,-87.6982625
4499014620,node,transit,103rd Street & Hoyne,,,,bus_stop,,platform,,,,,,,41.7064457,-87.6745617
4499014621,node,transit,103rd Street & Normal,,,,bus_stop,,platform,,,,,,,41.707098,-87.6354037
4499014623,node,transit,103rd Street & Wood,,,,bus_stop,,platform,,,,,,,41.7065493,-87.667281
4499014624,node,transit,Julian High School,,,,bus_stop,,platform,,,,,,,41.7067197,-87.6552265
4499014626,node,transit,103rd Street & Wentworth,,,,bus_stop,,platform,,,,,,,41.7071809,-87.6287443
4499014628,node,transit,103rd Street & Longwood,,,,bus_stop,,platform,,,,,,,41.706638,-87.6705092
4499014629,node,transit,103rd Street & Princeton,,,,bus_stop,,platform,,,,,,,41.7071552,-87.6305837
4499014630,node,transit,3000 W 103rd Street,,,,bus_stop,,platform,,,,,,,41.7063631,-87.696275
4499014631,node,transit,103rd Street & Longwood,,,,bus_stop,,platform,,,,,,,41.7064992,-87.6709119
4499014633,node,transit,103rd Street & Francisco,,,,bus_stop,,platform,,,,,,,41.7061889,-87.694199
4499014634,node,transit,103rd Street & Seeley (Nearside),,,,bus_stop,,platform,,,,,,,41.7066055,-87.6719662
4499014638,node,transit,103rd Street & Wallace,,,,bus_stop,,platform,,,,,,,41.707064,-87.6377922
4499014639,node,transit,103rd Street & Wood,,,,bus_stop,,platform,,,,,,,41.7066756,-87.6669686
4499014640,node,transit,103rd Street & Morgan,,,,bus_stop,,platform,,,,,,,41.706809,-87.6478365
4499014641,node,transit,103rd Street & Hale (Metra),,,,bus_stop,,platform,,,,,,,41.7066663,-87.6686228
4499014643,node,transit,103rd Street & Walden (Metra),,,,bus_stop,,platform,,,,,,,41.7065193,-87.6690426
4499014645,node,transit,103rd Street & State,,,,bus_stop,,platform,,,,,,,41.7072482,-87.6232868
4499014646,node,transit,103rd Street & Vincennes,,,,bus_stop,,platform,,,,,,,41.7068669,-87.6554867
4499014647,node,transit,103rd Street & Campbell,,,,bus_stop,,platform,,,,,,,41.706489,-87.6839972
4499014649,node,transit,103rd Street & Eggleston,,,,bus_stop,,platform,,,,,,,41.7069712,-87.633277
4499014651,node,transit,103rd Street & Racine,,,,bus_stop,,platform,,,,,,,41.7067745,-87.652106
4499014652,node,transit,103rd Street & Western,,,,bus_stop,,platform,,,,,,,41.706299,-87.6818814
4499014653,node,transit,103rd Street & Normal,,,,bus_stop,,platform,,,,,,,41.7069378,-87.6357054
4499014654,node,transit,103rd Street & State,,,,bus_stop,,platform,,,,,,,41.707096,-87.6237213
4499014655,node,transit,103rd Street & Halsted,,,,bus_stop,,platform,,,,,,,41.7070021,-87.6432609
4499014656,node,transit,103rd Street & Western,,,,bus_stop,,platform,,,,,,,41.7064677,-87.6813987
4499014657,node,transit,103rd Street & Fairfield,,,,bus_stop,,platform,,,,,,,41.706227,-87.6900094
4499014658,node,transit,103rd Street & Racine,,,,bus_stop,,platform,,,,,,,41.7069088,-87.652376
4499014660,node,transit,103rd Street & Church,,,,bus_stop,,platform,,,,,,,41.7067956,-87.6604407
4499014662,node,transit,103rd Street & Hoyne,,,,bus_stop,,platform,,,,,,,41.7065454,-87.6750748
4499014663,node,transit,103rd Street & Fairfield,,,,bus_stop,,platform,,,,,,,41.7064373,-87.6900979
4499014667,node,transit,103rd Street & Aberdeen,,,,bus_stop,,platform,,,,,,,41.7067853,-87.6502744
4499014671,node,transit,103rd Street & Harvard,,,,bus_stop,,platform,,,,,,,41.7071302,-87.6323634
4499014672,node,transit,103rd Street & Malta,,,,bus_stop,,platform,,,,,,,41.7068438,-87.6570558
4499014673,node,transit,103rd Street & Princeton,,,,bus_stop,,platform,,,,,,,41.7070069,-87.6308372
4499014674,node,transit,103rd Street & Peoria,,,,bus_stop,,platform,,,,,,,41.7069739,-87.645112
4499014676,node,transit,1700 W 103rd Street,,,,bus_stop,,platform,,,,,,,41.7067177,-87.6648798
4499950102,node,transit,115th Street & Normal,,,,bus_stop,,platform,,,,,,,41.6851117,-87.6350388
4499950103,node,transit,115th Street & Morgan,,,,bus_stop,,platform,,,,,,,41.6850958,-87.6468806
4499950104,node,transit,Cottage Grove & 104th Street,,,,bus_stop,,platform,,,,,,,41.7054043,-87.6070567
4499950105,node,transit,Cottage Grove & 98th Street,,,,bus_stop,,platform,,,,,,,41.7163788,-87.6043589
4499950106,node,transit,115th Street & Halsted,,,,bus_stop,,platform,,,,,,,41.6851489,-87.6427862
4499950107,node,transit,Cottage Grove & 111th Street,,,,bus_stop,,platform,,,,,,,41.692931,-87.6099289
4499950108,node,transit,115th Street & Forest,,,,bus_stop,,platform,,,,,,,41.6853402,-87.6158141
